sector_name,lat,long,address,zone,sector_type,population,housing,income,housing_size,amount_waste,amount_waste_kg,waste_rate,edit_date
ทน.เชียงราย,19.91139766,99.82627739,59 ถนน อุตรกิจ ตำบลเวียง อำเภอเมืองเชียงราย เชียงราย 57000,ภาคเหนือ,เทศบาลนคร (ทน.),77545.00,50608.00,NaN,1.53,100.04,100040.00,1.29,01-06-22
ทน.เชียงใหม่,18.7952846,98.99859495,1 ถนน วังสิงห์คำ ตำบล ช้างม่อย อำเภอเมืองเชียงใหม่ เชียงใหม่ 50300,ภาคเหนือ,เทศบาลนคร (ทน.),120787.00,90147.00,NaN,1.34,300.00,300000.00,2.48,01-06-22
ทต.สารภี,18.68214276,99.04168617,156 ม.4 ถนน เชียงใหม่-ลำพูน ตำบล สารภี อำเภอ สารภี เชียงใหม่ 50140,ภาคเหนือ,เทศบาลตำบล (ทต.),6585.00,2678.00,96098.59,2.46,NaN,NaN,NaN,01-06-22
ทต.หนองป่าครั่ง,18.78580952,99.03732671,15 หมู่ 3 ตำบลหนองป่าครั่ง อำเภอเมืองเชียงใหม่ เชียงใหม่ 50000,ภาคเหนือ,เทศบาลตำบล (ทต.),7297.00,5977.00,NaN,1.22,14.03,14030.00,1.92,01-06-22
อบต.สันกลาง ,18.64683653,98.88577528,ตำบลสันกลาง อำเภอสันกำแพง เชียงใหม่ 50130,ภาคเหนือ,องค์การบริหารส่วนตำบล (อบต.),5893.00,3081.00,80698.00,1.91,NaN,NaN,NaN,01-06-22
ทม.เชียงใหม่,18.83624996,98.97270558,1 ถนน วังสิงห์คำ ตำบล ช้างม่อย อำเภอเมืองเชียงใหม่ เชียงใหม่ 50300,ภาคเหนือ,เทศบาลเมือง (ทม.),12859.00,5696.00,80135.13,2.26,5.80,5800.00,0.45,01-06-22
ทต.บ้านหลวง,18.49068194,98.67455854,"1 หมู่ 20 ถนน จอมทอง อิน ท นนท์ เชียงใหม่ 50160, ตำบล บ้านหลวง อำเภอจอมทอง เชียงใหม่ 50160",ภาคเหนือ,เทศบาลตำบล (ทต.),13598.00,4008.00,35000.00,3.39,5.80,5800.00,0.43,01-06-22
ทต.เชิงดอย,18.87082447,99.15222849, ตำบล เชิงดอย อำเภอดอยสะเก็ด เชียงใหม่ 50220,ภาคเหนือ,เทศบาลตำบล (ทต.),4042.00,2122.00,NaN,1.90,NaN,NaN,NaN,01-06-22
ทต.ฟ้าฮ่าม,18.8145366,99.00720893,1 ถนน แอสฟัลท์ติกตามแบบองค์การบริหารส่วนตำบลฟ้าฮ่ามบ้านท่ากระดาษ ตำบล ฟ้าฮ่าม อำเภอเมืองเชียงใหม่ เชียงใหม่ 50000,ภาคเหนือ,เทศบาลตำบล (ทต.),7024.00,9594.00,85000.00,0.73,NaN,NaN,NaN,01-06-22
อบต.ท่าตอน,20.05733869,99.35884335,559 ห้วยมะเฟือง ซอย 2 หมู่ 2 ตำบลท่าตอน ตำบล ท่าตอน อำเภอ แม่อาย เชียงใหม่ 50280,ภาคเหนือ,องค์การบริหารส่วนตำบล (อบต.),21461.00,8470.00,10000.00,2.53,5.00,5000.00,0.23,01-06-22
ทต.อมก๋อย,17.80347039,98.36259822,ตำบล อมก๋อย อำเภออมก๋อย เชียงใหม่ 50310,ภาคเหนือ,เทศบาลตำบล (ทต.),1077.00,357.00,30000.00,3.02,0.50,500.00,0.46,01-06-22
ทต.บ้านแปะ,18.2108486,98.61665055,"141 หมู่ 8, ถนนเชียงใหม่-ฮอด, ตำบลบ้านแปะ อำเภอจอมทอง จังหวัดเชียงใหม่, 50240",ภาคเหนือ,เทศบาลตำบล (ทต.),12125.00,4016.00,50000.00,3.02,4.90,4900.00,0.40,01-06-22
อบต.เปียงหลวง,19.64951636,98.63517525,ตำบล เปียงหลวง อำเภอ เวียงแหง เชียงใหม่ 50350,ภาคเหนือ,องค์การบริหารส่วนตำบล (อบต.),26211.00,4474.00,NaN,5.86,1.50,1500.00,0.06,01-06-22
อบต.บ่อสลี,18.14597272,98.26370268,ตำบล บ่อสลี อำเภอฮอด เชียงใหม่ 50240,ภาคเหนือ,องค์การบริหารส่วนตำบล (อบต.),8042.00,2556.00,NaN,3.15,NaN,NaN,NaN,01-06-22
อบต.แม่ก๊า,18.5517536,98.93237658,ตำบล แม่ก๊า อำเภอสันป่าตอง เชียงใหม่ 50120,ภาคเหนือ,องค์การบริหารส่วนตำบล (อบต.),7108.00,2841.00,36000.00,2.50,2.25,2250.00,0.32,01-06-22
ทต.ยุหว่า,18.60766941,98.88688095,299 หมู่ 9 ตำบล ยุหว่า อำเภอสันป่าตอง เชียงใหม่ 50120,ภาคเหนือ,เทศบาลตำบล (ทต.),9955.00,4394.00,102562.59,2.27,5.00,5000.00,0.50,01-06-22
ทต.ดอยแก้ว,18.40251152,98.6520995,ตำบล ดอยแก้ว อำเภอจอมทอง เชียงใหม่ 50160,ภาคเหนือ,เทศบาลตำบล (ทต.),4118.00,1408.00,35000.00,2.92,4.10,4100.00,1.00,01-06-22
ทต.แม่ป๋ง,19.25045881,99.18390439,152 หมู่ 1 ตำบล แม่ปั๋ง อำเภอพร้าว เชียงใหม่ 50190,ภาคเหนือ,เทศบาลตำบล (ทต.),6185.00,2579.00,120000.00,2.40,2.00,2000.00,0.32,01-06-22
ทต.บ้านปง ,18.75018176,98.88966978,183 หมู่ 1 ซอย 4 ตำบล หนองควาย อำเภอหางดง เชียงใหม่ 50230,ภาคเหนือ,เทศบาลตำบล (ทต.),5400.00,2129.00,33000.00,2.54,NaN,NaN,NaN,01-06-22
อบต.แม่สาบ,18.95420983,98.6826096,ตำบล แม่สาบ อำเภอสะเมิง เชียงใหม่ 50250,ภาคเหนือ,องค์การบริหารส่วนตำบล (อบต.),3273.00,1184.00,71813.79,2.76,0.03,26.00,0.01,01-06-22
ทต.เมืองนะ,19.59324158,98.96166366,ตำบล เมืองนะ อำเภอเชียงดาว เชียงใหม่ 50170,ภาคเหนือ,เทศบาลตำบล (ทต.),37363.00,9171.00,60000.00,4.07,1.47,1470.00,0.04,01-06-22
อบต.แจ่งหลวง,19.02461696,98.27996054,ตำบล แจ่มหลวง อำเภอ กัลยาณิวัฒนา เชียงใหม่ 58130,ภาคเหนือ,องค์การบริหารส่วนตำบล (อบต.),3921.00,1275.00,47000.00,3.08,0.50,500.00,0.13,01-06-22
อบต.ทุ่งรวงทอง,18.5631562,98.83861223,ตำบล ทุ่งรวงทอง อำเภอ แม่วาง เชียงใหม่ 50360,ภาคเหนือ,องค์การบริหารส่วนตำบล (อบต.),2350.00,697.00,60000.00,3.37,NaN,NaN,NaN,01-06-22
ทต.สุเทพ,18.76960229,98.95003568,98 หมู่ที่ 5 ถนน คัน ถนน คลองชลประทาน อำเภอเมืองเชียงใหม่ เชียงใหม่ 50200,ภาคเหนือ,เทศบาลตำบล (ทต.),17000.00,11346.00,84454.00,1.50,25.29,25290.00,1.49,01-06-22
อบต.แม่อาย,20.02966893,99.28488343,ตำบล แม่อาย อำเภอ แม่อาย เชียงใหม่ 50280,ภาคเหนือ,องค์การบริหารส่วนตำบล (อบต.),4183.00,1377.00,19000.00,3.04,1.80,1800.00,0.43,01-06-22
ทต.ท่าผา,18.4848653,98.37825484,ตำบล ท่าผา อำเภอแม่แจ่ม เชียงใหม่ 50270,ภาคเหนือ,เทศบาลตำบล (ทต.),4977.00,1800.00,39000.00,2.77,5.10,5100.00,1.02,01-06-22
อบต.กองแขก,18.44247263,98.39338111,ตำบล กองแขก อำเภอแม่แจ่ม เชียงใหม่ 50270,ภาคเหนือ,องค์การบริหารส่วนตำบล (อบต.),6593.00,2278.00,50000.00,2.89,1.00,1000.00,0.15,01-06-22
อบต.ออนเหนือ,18.78899805,99.25269239,163 หมู่ที่ 6 ถนนทางหลวง ตำบล บ้านสหกรณ์ อำเภอ แม่ออน เชียงใหม่ 50130,ภาคเหนือ,องค์การบริหารส่วนตำบล (อบต.),3252.00,543.00,2400.00,5.99,5.00,5000.00,1.54,01-06-22
ทต.ดอนแก้ว,18.69981811,98.99219383,ตำบล ดอนแก้ว อำเภอ สารภี เชียงใหม่ 50140,ภาคเหนือ,เทศบาลตำบล (ทต.),4367.00,2181.00,3500.00,2.00,NaN,NaN,NaN,01-06-22
ทต.ปิงโค้ง,19.42941512,98.97876856,ตำบล ปิงโค้ง อำเภอเชียงดาว เชียงใหม่ 50170,ภาคเหนือ,เทศบาลตำบล (ทต.),13467.00,4301.00,140000.00,3.13,8.80,8800.00,0.65,01-06-22
อบต.กื๊ดช้าง,19.22159747,98.8456043,ตำบล กื้ดช้าง อำเภอแม่แตง เชียงใหม่ 50150,ภาคเหนือ,องค์การบริหารส่วนตำบล (อบต.),5548.00,2250.00,11919.00,2.47,3.79,3790.00,0.68,01-06-22
ทต.หนองผึ้ง ,18.74361353,99.0134327,"444 หมู่ 1, ถนนหลวงสาย 121 ตำบล หนองผึ้ง อำเภอ สารภี เชียงใหม่ 50140",ภาคเหนือ,เทศบาลตำบล (ทต.),15687.00,8766.00,NaN,1.79,19.50,19500.00,1.24,01-06-22
ทต.หนองบัว,15.87020601,100.5966738,ตำบล หนองบัว อำเภอ ไชยปราการ เชียงใหม่ 50320,ภาคเหนือ,เทศบาลตำบล (ทต.),14954.00,4836.00,30000.00,3.09,2.00,2000.00,0.13,01-06-22
อบต.เทพเสด็จ,18.92108561,99.33031878,"เลขที่ 31/1 หมู่ 7, ตำบลเทพเสด็จ อำเภอดอยสะเก็ด จังหวัดเชียงใหม่, 50220",ภาคเหนือ,องค์การบริหารส่วนตำบล (อบต.),1795.00,770.00,50000.00,2.33,0.20,200.00,0.11,01-06-22
ทต.แม่สอย ,18.29116996,98.64008172,ตำบล แม่สอย อำเภอจอมทอง เชียงใหม่ 50240,ภาคเหนือ,เทศบาลตำบล (ทต.),9224.00,2971.00,36000.00,3.10,1.20,1200.00,0.13,01-06-22
ทต.แม่ริมใต้,18.91616258,98.960787,333 หมู่ 8 ถนน แม่ริม - สันทราย ตำบล ริมใต้ อำเภอแม่ริม เชียงใหม่ 50180,ภาคเหนือ,เทศบาลตำบล (ทต.),9422.00,5772.00,NaN,1.63,12.80,12800.00,1.36,01-06-22
อบต.เขื่อนผาก,19.32814774,99.19033018,เลขที่ 152 ตำบล เขื่อนผาก อำเภอพร้าว เชียงใหม่ 50190,ภาคเหนือ,องค์การบริหารส่วนตำบล (อบต.),4628.00,2115.00,NaN,2.19,NaN,NaN,NaN,01-06-22
ทต.หางดง,18.68866391,98.91915687,ตำบลหางดง อำเภอหางดง เชียงใหม่ 50230,ภาคเหนือ,เทศบาลตำบล (ทต.),7244.00,3850.00,NaN,1.88,10.00,10000.00,1.38,01-06-22
ทต.แม่ท่าช้าง,18.7022926,98.91626941,ตำบลหางดง อำเภอหางดง เชียงใหม่ 50230,ภาคเหนือ,เทศบาลตำบล (ทต.),4039.00,2238.00,1.00,1.80,2.00,2000.00,0.50,01-06-22
ทต.สันโป่ง,18.94239021,98.9438898,"200 หมู่ 3, ตำบลสันโป่ง อำเภอแม่ริม จังหวัดเชียงใหม่, 50180 50180",ภาคเหนือ,เทศบาลตำบล (ทต.),10502.00,4894.00,NaN,2.15,5.00,5000.00,0.48,01-06-22
ทต.ไชยสถาน ,18.73518965,99.04065885,"155/1 หมู่ 3, ตำบลไชยสถาน อำเภอสารภี จังหวัดเชียงใหม, 50140 50140",ภาคเหนือ,เทศบาลตำบล (ทต.),6601.00,3879.00,108785.94,1.70,5.00,5000.00,0.76,01-06-22
อบต.บ้านแอ่น,18.04941853,98.63889921,ตำบล บ้านแอ่น อำเภอ ดอยเต่า เชียงใหม่ 50260,ภาคเหนือ,องค์การบริหารส่วนตำบล (อบต.),2533.00,1021.00,30000.00,2.48,1.00,1000.00,0.39,01-06-22
ทต.ป่าไผ่,18.89794687,99.04994119,158 หมู่ที่ 2 ตำบล ป่าไผ่ อำเภอสันทราย เชียงใหม่ 50210,ภาคเหนือ,เทศบาลตำบล (ทต.),13892.00,6164.00,92013.75,2.25,7.38,7380.00,0.53,01-06-22
ทต.บ้านตาล,18.09531578,98.66172953,"179 ม.3 ถนนฮอด-ดอยเต่า ต.บ้านตาว อ.ฮอด 
จ.เชียงใหม่ 50240",ภาคเหนือ,เทศบาลตำบล (ทต.),5099.00,2310.00,NaN,2.21,13.65,13650.00,2.68,01-06-22
ทต.น้ำแพร่,19.34400036,99.1763514,"226 หมู่ 7, ถนนทางหลวง, ตำบลน้ำแพร่ อำเภอพร้าว จังหวัดเชียงใหม่, 50190",ภาคเหนือ,เทศบาลตำบล (ทต.),7309.00,1861.00,5000.00,3.93,7.00,7000.00,0.96,01-06-22
อบต.ท่าเดื่อ,17.95613397,98.67977504,ตำบล ท่าเดื่อ อำเภอ ดอยเต่า เชียงใหม่ 50260,ภาคเหนือ,องค์การบริหารส่วนตำบล (อบต.),2382.00,894.00,50000.00,2.66,0.10,100.00,0.04,01-06-22
อบต.ดอนเปา,18.60552461,98.81496282,180 ตำบล ดอนเปา อำเภอ แม่วาง เชียงใหม่ 50360,ภาคเหนือ,องค์การบริหารส่วนตำบล (อบต.),5198.00,2185.00,87581.00,2.38,0.30,300.00,0.06,01-06-22
อบต.บ้านหลวง,19.91773984,99.29233669,เลขที่ 229 ตำบล บ้านหลวง อำเภอ แม่อาย เชียงใหม่ 50280,ภาคเหนือ,องค์การบริหารส่วนตำบล (อบต.),7680.00,3275.00,60000.00,2.35,1.50,1500.00,0.20,01-06-22
ทต.แม่แฝก,19.01428027,98.97035686,"194 หมู่ที่ 8, ถนนเชียงใหม่-พร้าว, ตำบลแม่แฝก อำเภอสันทราย จังหวัดเชียงใหม่, 50210 50210",ภาคเหนือ,เทศบาลตำบล (ทต.),9062.00,3905.00,86187.00,2.32,20.45,20450.00,2.26,01-06-22
อบต.สันทราย,19.41889148,99.18796375,"155 หมู่ที่ 5, ตำบลสันทราย อำเภอพร้าว จังหวัดเชียงใหม่ 50190",ภาคเหนือ,องค์การบริหารส่วนตำบล (อบต.),6328.00,2416.00,100000.00,2.62,2.00,2000.00,0.32,01-06-22
ทต.ป่าแดด,19.50452609,99.99347704,หมู่ที่ 3 170/1 ตำบลป่าแดด อำเภอเมืองเชียงใหม่ เชียงใหม่ 50100,ภาคเหนือ,เทศบาลตำบล (ทต.),17428.00,10888.00,8000.00,1.60,23.00,23000.00,1.32,01-06-22
ทต.ขัวมุง,18.67305349,98.97850616,"107/1 หมู่ 6, ตำบลขล้วมุง อำเภอสารภี จังหวัดเชียงใหม่ 50140",ภาคเหนือ,เทศบาลตำบล (ทต.),5569.00,2437.00,NaN,2.29,7.00,7000.00,1.26,01-06-22
อบต.สะเมิงเหนือ,18.97200698,98.7263588,หมู่ ที่ 4 เลข ที่ 169 ตำบล สะเมิงเหนือ อำเภอสะเมิง เชียงใหม่ 50250,ภาคเหนือ,องค์การบริหารส่วนตำบล (อบต.),3152.00,1407.00,3840.00,2.24,3.15,3150.00,1.00,01-06-22
อบต.โหล่งขอด,19.11011024,99.18097238,"หมู่ 3, ตำบลโหล่งขอด อำเภอพร้าว จังหวัดเชียงใหม่, 50190 50220",ภาคเหนือ,องค์การบริหารส่วนตำบล (อบต.),4484.00,1983.00,108000.00,2.26,0.90,900.00,0.20,01-06-22
ทต.หนองแผก,18.68621398,99.02958006,"194 หมู่ที่ 8, ถนนเชียงใหม่-พร้าว, ตำบลแม่แฝก อำเภอสันทราย จังหวัดเชียงใหม่, 50210 50210",ภาคเหนือ,เทศบาลตำบล (ทต.),5853.00,2380.00,NaN,2.46,2.50,2500.00,0.43,01-06-22
อบต.บ้านจันทร์,19.0776056,98.30502763,59 หมู่ที่ 3 บ้านวัดจันทร์ ตำบล บ้านจันทร์ อำเภอ กัลยาณิวัฒนา เชียงใหม่ 50270,ภาคเหนือ,องค์การบริหารส่วนตำบล (อบต.),4443.00,1766.00,NaN,2.52,0.50,500.00,0.11,01-06-22
ทต.แสนไห,19.62672629,98.62955374,หมู่ที่ 3 221 ตำบล แสนไห อำเภอ เวียงแหง เชียงใหม่ 50350,ภาคเหนือ,เทศบาลตำบล (ทต.),2400.00,1378.00,NaN,1.74,0.92,920.00,0.38,01-06-22
ทต.สองแคว,18.51103338,98.85259581,ตำบลสองแคว อำเภอดอยหล่อ จังหวัดเชียงใหม่,ภาคเหนือ,เทศบาลตำบล (ทต.),4750.00,2033.00,69813.00,2.34,1.70,1700.00,0.36,01-06-22
อบต.มะขุนหวาน,18.57822019,98.91121206,9 หมู่ 5 ถนนทางหลวง ตำบล มะขุนหวาน อำเภอสันป่าตอง เชียงใหม่ 50120,ภาคเหนือ,องค์การบริหารส่วนตำบล (อบต.),3375.00,1275.00,NaN,2.65,0.73,730.00,0.22,01-06-22
อบต.สันกำแพง,18.76171579,99.14112748,126 หมู่ที่ 13 ตำบล สันกำแพง อำเภอสันกำแพง เชียงใหม่ 50130,ภาคเหนือ,องค์การบริหารส่วนตำบล (อบต.),6417.00,4004.00,NaN,1.60,6.00,6000.00,0.94,01-06-22
ทต.แม่แตง,19.1381589,98.93141508,ตำบล แม่แตง อำเภอแม่แตง เชียงใหม่ 50150,ภาคเหนือ,เทศบาลตำบล (ทต.),4980.00,1187.00,NaN,4.20,0.75,750.00,0.15,01-06-22
ทต.ป่าป้อง,18.84373591,99.1372168,"155 หมู่ 6, ถนนทางหลวง, ตำบลป่าป้อง อำเภอดอยสะเก็ด จังหวัดเชียงใหม่, 50220",ภาคเหนือ,เทศบาลตำบล (ทต.),4259.00,2008.00,95683.00,2.12,NaN,NaN,NaN,01-06-22
ทต.เหมืองแกว้,18.89676854,98.97674421,ตำบล เหมืองแก้ว อำเภอแม่ริม เชียงใหม่ 50180,ภาคเหนือ,เทศบาลตำบล (ทต.),6534.00,3231.00,72000.00,2.02,5.00,5000.00,0.77,01-06-22
อบต.ห้วยทราย,18.96010306,98.91690507,ตำบล ห้วยทราย อำเภอแม่ริม เชียงใหม่ 50180,ภาคเหนือ,องค์การบริหารส่วนตำบล (อบต.),4796.00,3033.00,353000.00,1.58,1.00,1000.00,0.21,01-06-22
อบต.เมืองคอง,19.38837732,98.71451682,ตำบล เมืองคอง อำเภอเชียงดาว เชียงใหม่ 50170,ภาคเหนือ,องค์การบริหารส่วนตำบล (อบต.),3940.00,1533.00,50000.00,2.57,7.88,7880.00,2.00,01-06-22
อบต.บ่อแก้ว,18.84832563,98.56806758,ตำบล บ่อแก้ว อำเภอสะเมิง เชียงใหม่ 50250,ภาคเหนือ,องค์การบริหารส่วนตำบล (อบต.),8300.00,2267.00,48260.00,3.66,1.30,1300.00,0.16,01-06-22
ทต.ป่าบง,18.74294112,99.06067288,ตำบล ป่าบง อำเภอ สารภี เชียงใหม่ 50140,ภาคเหนือ,เทศบาลตำบล (ทต.),4878.00,2333.00,102637.00,2.09,3.01,3010.00,0.62,01-06-22
ทต.บ้านแม,18.63309805,98.8512693,229 ตำบล บ้านแม อำเภอสันป่าตอง เชียงใหม่ 50120,ภาคเหนือ,เทศบาลตำบล (ทต.),6418.00,2606.00,NaN,2.46,2.24,2240.00,0.35,01-06-22
ทต.แม่แผกใหม่,19.0142867,98.97035802,"194 หมู่ที่ 8, ถนนเชียงใหม่-พร้าว, ตำบลแม่แฝก อำเภอสันทราย จังหวัดเชียงใหม่ 50210 ",ภาคเหนือ,เทศบาลตำบล (ทต.),8103.00,3893.00,156130.05,2.08,4.70,4700.00,0.58,01-06-22
ทต.สง่าบ้าน,18.82457069,99.12096776,"167 หมู่ 3, ตำบลสง่าบ้าน อำเภอดอยสะเก็ด จังหวัดเชียงใหม่, 50220 50220",ภาคเหนือ,เทศบาลตำบล (ทต.),4467.00,1885.00,120000.00,2.37,3.50,3500.00,0.78,01-06-22
อบต.ม่อนปั่น,19.91654577,99.15884404,199 หมู่ 3 ม่อนปิ่น ฝาง เชียงใหม่ 50110,ภาคเหนือ,องค์การบริหารส่วนตำบล (อบต.),20870.00,5433.00,NaN,3.84,NaN,NaN,NaN,01-06-22
อบต.บงตัน,18.01940498,98.67071543,หมู่ 2 131 ตำบล บงตัน อำเภอ ดอยเต่า เชียงใหม่ 50260,ภาคเหนือ,องค์การบริหารส่วนตำบล (อบต.),5020.00,1827.00,NaN,2.75,NaN,NaN,NaN,01-06-22
ทต.บ้านแหวน,18.69159872,98.92986125,ตำบลหางดง อำเภอหางดง เชียงใหม่ 50230,ภาคเหนือ,เทศบาลตำบล (ทต.),11356.00,6463.00,48072.36,1.76,5.00,5000.00,0.44,01-06-22
อบต.สบแม่ข่า,18.67789007,98.97720688,99 บ้านเกาะ หมู่ 3 ซอย 3 ตำบล สบแม่ข่า อำเภอหางดง เชียงใหม่ 50230,ภาคเหนือ,องค์การบริหารส่วนตำบล (อบต.),2479.00,1163.00,NaN,2.13,2.59,2591.00,1.05,01-06-22
อบต.นาคอเรือ,18.07115539,98.55227386,1 ถนนฮอด-แม่ป่าไผ่ ตำบล นาคอเรือ อำเภอฮอด เชียงใหม่ 50240,ภาคเหนือ,องค์การบริหารส่วนตำบล (อบต.),4686.00,1694.00,NaN,2.77,1.00,1000.00,0.21,01-06-22
อบต.แช่ช้าง,18.73658345,99.16395883,ตำบล ดงมะดะ อำเภอแม่ลาว เชียงราย 57250,ภาคเหนือ,องค์การบริหารส่วนตำบล (อบต.),4993.00,2497.00,NaN,2.00,2.51,2510.00,0.50,01-06-22
ทต.อุโมงค์,18.65368194,99.03870618,225 1030 ตำบล อุโมงค์ อำเภอเมืองลำพูน ลำพูน 51150,ภาคเหนือ,เทศบาลตำบล (ทต.),12866.00,5930.00,92663.60,2.17,6.20,6200.00,0.48,01-06-22
ทต.หนองตอง,18.61620993,98.95161965,40 ซอย 2 ตำบล หนองตอง อำเภอหางดง เชียงใหม่ 50340,ภาคเหนือ,เทศบาลตำบล (ทต.),8419.00,3526.00,NaN,2.39,NaN,NaN,NaN,01-06-22
อบต.ร้องวัวแดง,18.7416849,99.1930438,ตำบล ร้องวัวแดง อำเภอสันกำแพง เชียงใหม่ 50130,ภาคเหนือ,องค์การบริหารส่วนตำบล (อบต.),5708.00,2734.00,NaN,2.09,3.00,3000.00,0.53,01-06-22
อบต.แม่แดด,18.96450925,98.41633927,ตำบล แม่แดด อำเภอ กัลยาณิวัฒนา เชียงใหม่ 50250,ภาคเหนือ,องค์การบริหารส่วนตำบล (อบต.),4371.00,1222.00,35000.00,3.58,1.50,1500.00,0.34,01-06-22
ทต.แม่นะ,19.34112942,98.96034063,ตำบล เชียงดาว อำเภอเชียงดาว เชียงใหม่ 50170,ภาคเหนือ,เทศบาลตำบล (ทต.),9869.00,4293.00,NaN,2.30,1.35,1350.00,0.14,01-06-22
อบต.ปางหินฝน,18.51025681,98.22886589,ตำบล ปางหินฝน อำเภอแม่แจ่ม เชียงใหม่ 50270,ภาคเหนือ,องค์การบริหารส่วนตำบล (อบต.),7382.00,2102.00,35000.00,3.51,0.05,46.00,0.01,01-06-22
ทต.ทุ่งต้อม,18.60950336,98.917402,"4 หมู่ 11, ตำบลทุ่งต้อม อำเภอสันป่าตอง จังหวัดเชียงใหม่, 50120",ภาคเหนือ,เทศบาลตำบล (ทต.),5222.00,2155.00,NaN,2.42,2.05,2054.00,0.39,01-06-22
ทต.บ้านหลวง,18.49021652,98.67466643,"1 หมู่ 20 ถนน จอมทอง อิน ท นนท์ เชียงใหม่ 50160, ตำบล บ้านหลวง อำเภอจอมทอง เชียงใหม่ 50160",ภาคเหนือ,เทศบาลตำบล (ทต.),9264.00,4518.00,90000.00,2.05,13.00,13000.00,1.40,01-06-22
ทต.หนองหอย,18.75294712,99.00327015,31/2 ตำบลหนองหอย อำเภอเมืองเชียงใหม่ เชียงใหม่ 50000,ภาคเหนือ,เทศบาลตำบล (ทต.),7786.00,5461.00,NaN,1.43,10.00,10000.00,1.28,01-06-22
ทต.สันมหาพน,19.12420795,98.94722207,999 หมู่ 7 ตำบล สันมหาพน อำเภอแม่แตง เชียงใหม่ 50150,ภาคเหนือ,เทศบาลตำบล (ทต.),8367.00,5087.00,76193.06,1.64,4.80,4800.00,0.57,01-06-22
ทต.แม่ข่า,19.78094154,99.16405813,199 ถนน องค์การบริหารส่วนจังหวัด เชียงใหม่ 4050 ตำบล แม่ข่า อำเภอ ฝาง เชียงใหม่ 50320,ภาคเหนือ,เทศบาลตำบล (ทต.),7601.00,3088.00,NaN,2.46,NaN,NaN,NaN,01-06-22
ทม.แม่เหียะ,18.74329921,98.96401306,194 ถนน สมโภชเชียงใหม่ 700 ปี ตำบล แม่เหียะ อำเภอเมืองเชียงใหม่ เชียงใหม่ 50100,ภาคเหนือ,เทศบาลเมือง (ทม.),19660.00,13097.00,34950.00,1.50,35.34,35340.00,1.80,01-06-22
ทต.ลาดขวัญ,18.83517113,99.08176689,ตำบล ตลาดขวัญ อำเภอดอยสะเก็ด เชียงใหม่ 50220,ภาคเหนือ,เทศบาลตำบล (ทต.),4101.00,2569.00,12000.00,1.60,2.55,2550.00,0.62,01-06-22
อบต.แม่วิน ,18.65671776,98.68178627,9 หมู่ที่ 15 ตำบล แม่วิน อำเภอ แม่วาง เชียงใหม่ 50360,ภาคเหนือ,องค์การบริหารส่วนตำบล (อบต.),12881.00,3489.00,50000.00,3.69,NaN,NaN,NaN,01-06-22
ทต.แม่คือ ,18.79623121,99.11341137,หมู่ที่ 2 149 ซอย6 ตำบล แม่คือ อำเภอดอยสะเก็ด เชียงใหม่ 50220,ภาคเหนือ,เทศบาลตำบล (ทต.),5950.00,2861.00,NaN,2.08,11.26,11260.00,1.89,01-06-22
ทต.บ้านกาด ,18.60381471,98.79855741,ตำบล บ้านกาด อำเภอ แม่วาง เชียงใหม่ 50360,ภาคเหนือ,เทศบาลตำบล (ทต.),4565.00,2198.00,72000.00,2.08,2.60,2600.00,0.57,01-06-22
อบต.ป่าแป๋ ,19.12205605,98.70925075,ตำบล ป่าแป๋ อำเภอแม่แตง เชียงใหม่ 50150,ภาคเหนือ,องค์การบริหารส่วนตำบล (อบต.),6043.00,2526.00,86011.22,2.39,NaN,NaN,NaN,01-06-22
อบต.ยั้งเมิน ,18.98886366,98.57250259,262 ตำบล ยั้งเมิน อำเภอสะเมิง เชียงใหม่ 50250,ภาคเหนือ,องค์การบริหารส่วนตำบล (อบต.),3554.00,212.00,20000.00,16.76,NaN,NaN,NaN,01-06-22
อบต.เขื่อนผาก ,19.32816019,99.19033386,เลขที่ 152 ตำบล เขื่อนผาก อำเภอพร้าว เชียงใหม่ 50190,ภาคเหนือ,องค์การบริหารส่วนตำบล (อบต.),4628.00,2115.00,NaN,2.19,NaN,NaN,NaN,01-06-22
ทต.ชมภู ,18.69902552,99.05835701,999 หมู่ 8 ตำบล ชมภู อำเภอ สารภี เชียงใหม่ 50140,ภาคเหนือ,เทศบาลตำบล (ทต.),7543.00,3067.00,NaN,2.46,NaN,NaN,NaN,01-06-22
ทต.บวกค้าง ,18.70558369,99.10677298,ตำบล บวกค้าง อำเภอสันกำแพง เชียงใหม่ 50130,ภาคเหนือ,เทศบาลตำบล (ทต.),8367.00,2771.00,NaN,3.02,NaN,NaN,NaN,01-06-22
อบต.ดอนแก้ว ,18.85683093,98.96905193,ตำบล ดอนแก้ว อำเภอแม่ริม เชียงใหม่ 50180,ภาคเหนือ,องค์การบริหารส่วนตำบล (อบต.),16333.00,8264.00,3000.00,1.98,11.57,11572.00,0.71,01-06-22
ทต.ลวงเหนือ ,18.91584159,99.13494729,ตำบล ลวงเหนือ อำเภอดอยสะเก็ด เชียงใหม่ 50220,ภาคเหนือ,เทศบาลตำบล (ทต.),6065.00,3137.00,NaN,1.93,NaN,NaN,NaN,01-06-22
อบต.ม่อนปิ่น ,19.91654493,9.158842175,199 หมู่ 3 ม่อนปิ่น ฝาง เชียงใหม่ 50110,ภาคเหนือ,องค์การบริหารส่วนตำบล (อบต.),8700.00,5433.00,NaN,1.60,5.00,5000.00,0.57,01-06-22
ทต.หนองควาย,18.72350583,98.92657292,ตำบล หนองควาย อำเภอหางดง เชียงใหม่ 50230,ภาคเหนือ,เทศบาลตำบล (ทต.),11097.00,8482.00,NaN,1.31,10.00,10000.00,0.90,01-06-22
อบต.แม่สาว ,19.98862781,99.25225847,149 ตำบล แม่สาว อำเภอ แม่อาย เชียงใหม่,ภาคเหนือ,องค์การบริหารส่วนตำบล (อบต.),12551.00,5262.00,150000.00,2.39,3.80,3800.00,0.30,01-06-22
ทต.ห้วยทราย ,18.78873063,99.16241906,ตำบล ห้วยทราย อำเภอสันกำแพง เชียงใหม่ 50220,ภาคเหนือ,เทศบาลตำบล (ทต.),5962.00,2571.00,NaN,2.32,2.40,2400.00,0.40,01-06-22
ทต.หางดง ,18.68871306,98.91911334,ตำบลหางดง อำเภอหางดง เชียงใหม่ 50230,ภาคเหนือ,เทศบาลตำบล (ทต.),5839.00,3400.00,100000.00,1.72,6.00,6000.00,1.03,01-06-22
ทต.เมืองเล็น,18.86626251,99.06758986,"189 หมู่ 3, ตำบลเมืองเล็น อำเภอสันทราย จังหวัดเชียงใหม่, 50210 50210",ภาคเหนือ,เทศบาลตำบล (ทต.),3917.00,1524.00,NaN,2.57,2.00,2000.00,0.51,01-06-22
อบต.ขุนคง ,18.68083243,98.95363347,"หมู่ 2, อาคารองค์การบริหารส่วนตำบลขุนคง, ตำบลขุนคง อำเภอหางดง จังหวัดเชียงใหม่, 50230",ภาคเหนือ,องค์การบริหารส่วนตำบล (อบต.),5185.00,2341.00,NaN,2.21,7.80,7802.50,1.50,01-06-22
ทต.บ้านกลาง ,18.57536384,98.88002596,222 หมู่ 2 นายกเทศมนตรี ตำบล บ้านกลาง อำเภอสันป่าตอง เชียงใหม่ 50120,ภาคเหนือ,เทศบาลตำบล (ทต.),10310.00,5215.00,100884.00,1.98,1.93,1930.00,0.19,01-06-22
ทม.แม่โจ้,18.90318981,99.00411024,"15 หมู่ 12, ถนน เชียงใหม่-พร้าว อำเภอสันทราย เชียงใหม่ 50290",ภาคเหนือ,เทศบาลเมือง (ทม.),23236.00,14105.00,36000.00,1.65,25.98,25983.66,1.12,01-06-22
อบต.ห้วยแก้ว,18.859696,99.27665646,ตำบล ห้วยแก้ว อำเภอ แม่ออน เชียงใหม่ 50130,ภาคเหนือ,องค์การบริหารส่วนตำบล (อบต.),2769.00,1600.00,40000.00,1.73,4.00,4000.00,1.44,01-06-22
ทต.ท่าศาลา,18.77007245,99.03703624,179 ต.ท่าศาลา อำเภอเมืองเชียงใหม่ เชียงใหม่ 50000,ภาคเหนือ,เทศบาลตำบล (ทต.),7025.00,5438.00,100000.00,1.29,8.00,8000.00,1.14,01-06-22
อบต.บ้านกลาง ,18.57534715,98.88005016,222 หมู่ 2 ตำบล บ้านกลาง อำเภอสันป่าตอง เชียงใหม่ 50120,ภาคเหนือ,องค์การบริหารส่วนตำบล (อบต.),3776.00,1552.00,78685.00,2.43,1.10,1100.00,0.29,01-06-22
อบต.บ่อหลวง ,18.64203984,98.84939217,"222 หมู่ 2 ตำบลน้ำบ่อหลวง อำเภอสันป่าตอง จังหวัดเชียงใหม่, 50120",ภาคเหนือ,องค์การบริหารส่วนตำบล (อบต.),5002.00,2261.00,30000.00,2.21,2.23,2230.00,0.45,01-06-22
ทต.ทุ่งสะโตก ,18.58515232,98.85229005,หมู่ 5 39/1 ตำบล ทุ่งสะโตก อำเภอสันป่าตอง เชียงใหม่ 50120,ภาคเหนือ,เทศบาลตำบล (ทต.),6209.00,2390.00,100000.00,2.60,2.00,2000.00,0.32,01-06-22
อบต.โป่งแยง ,18.88880933,98.82956608,ตำบล โป่งแยง อำเภอแม่ริม เชียงใหม่ 50180,ภาคเหนือ,องค์การบริหารส่วนตำบล (อบต.),11356.00,3150.00,100000.00,3.61,NaN,NaN,NaN,01-06-22
อบต.แม่สูน ,19.83061958,99.17059712,400 หมู่ 1 ตำบล แม่สูน อำเภอ ฝาง เชียงใหม่ 50110,ภาคเหนือ,องค์การบริหารส่วนตำบล (อบต.),14780.00,5744.00,108000.00,2.57,5.00,5000.00,0.34,01-06-22
อบต.เมืองแหง ,19.57650409,98.62304221,หมู่ 2 ตำบล เมืองแหง อำเภอ เวียงแหง เชียงใหม่ 50350,ภาคเหนือ,องค์การบริหารส่วนตำบล (อบต.),7872.00,3299.00,37040.00,2.39,7.14,7140.00,0.91,01-06-22
ทต.แม่ข่า ,19.78094216,99.16404526,199 ถนน องค์การบริหารส่วนจังหวัด เชียงใหม่ 4050 ตำบล แม่ข่า อำเภอ ฝาง เชียงใหม่ 50320,ภาคเหนือ,เทศบาลตำบล (ทต.),1904.00,887.00,NaN,2.15,2.00,2000.00,1.05,01-06-22
ทต.หนองหาร ,18.94653909,98.98353508,เลขที่ 399 หมู่ 7 บ้านหนองหาร อำเภอสันทราย เชียงใหม่ 50290,ภาคเหนือ,เทศบาลตำบล (ทต.),5598.00,3557.00,NaN,1.57,2.75,2750.00,0.49,01-06-22
ทต.เชิงดอย ,18.86500551,99.13199525,222 หมู่ 4 เชิงดอย ตำบล เชิงดอย อำเภอดอยสะเก็ด เชียงใหม่ 50220,ภาคเหนือ,เทศบาลตำบล (ทต.),7694.00,3599.00,NaN,2.14,3.00,3000.00,0.39,01-06-22
อบต.ดอยเต่า ,17.91528202,98.72807086,ตำบล ดอยเต่า อำเภอ ดอยเต่า เชียงใหม่ 50260,ภาคเหนือ,องค์การบริหารส่วนตำบล (อบต.),6448.00,2364.00,NaN,2.73,1.75,1750.00,0.27,01-06-22
อบต.ช้างเคิ่ง ,18.50645484,98.35268712,หมู่ 6 ตำบล ช่างเคิ่ง อำเภอแม่แจ่ม เชียงใหม่ 50270,ภาคเหนือ,องค์การบริหารส่วนตำบล (อบต.),7715.00,2731.00,65000.00,2.82,0.50,500.00,0.06,01-06-22
ทต.สบเตี๊ยะ ,18.38963024,98.67798367,"359 หมู่ 1, ตำบลสบเตี๊ยะ อำเภอจอมทอง จังหวัดเชียงใหม่, 50160 50160",ภาคเหนือ,เทศบาลตำบล (ทต.),12019.00,4424.00,33000.00,2.72,4.50,4500.00,0.37,01-06-22
อบต.ท่าวังพร้าว ,18.51857903,98.86426604,ตำบล ท่าวังพร้าว อำเภอสันป่าตอง เชียงใหม่ 50120,ภาคเหนือ,องค์การบริหารส่วนตำบล (อบต.),1791.00,767.00,30000.00,2.34,1.00,1000.00,0.56,01-06-22
อบต.แม่ทะลม ,19.73004843,99.17960674,ตำบล แม่ทะลบ อำเภอ ไชยปราการ เชียงใหม่ 50320,ภาคเหนือ,องค์การบริหารส่วนตำบล (อบต.),7992.00,3043.00,55000.00,2.63,1.24,1240.00,0.16,01-06-22
ทต.สันผีเสื้อ ,18.82718862,98.99910778,"หมู่ที่ 8, เลขที่ 99, ตำบล สันผีเสื้อ อำเภอเมืองเชียงใหม่ เชียงใหม่ 50300",ภาคเหนือ,เทศบาลตำบล (ทต.),12064.00,9028.00,150000.00,1.34,15.86,15860.00,1.31,01-06-22
อบต.โป่งน้ำร้อน ,19.93268251,99.17194337,ตำบล โป่งน้ำร้อน อำเภอ ฝาง เชียงใหม่,ภาคเหนือ,องค์การบริหารส่วนตำบล (อบต.),6284.00,2164.00,30000.00,2.90,1.17,1170.00,0.19,01-06-22
ทต.แม่โป่ง ,18.83391765,99.17907551,"11 หมู่ ที่ 10 ต แม่ โป่ง, อำเภอดอยสะเก็ด เชียงใหม่ 50220",ภาคเหนือ,เทศบาลตำบล (ทต.),5565.00,2349.00,NaN,2.37,2.18,2180.00,0.39,01-06-22
ทต.หนองแหย่ง ,18.89229098,99.09281627,ตำบล เมืองเล็น อำเภอสันทราย เชียงใหม่ 50210,ภาคเหนือ,เทศบาลตำบล (ทต.),5915.00,2599.00,NaN,2.28,1.87,1870.00,0.32,01-06-22
อบต.สบโขง,17.69340739,98.24072264,"เลขที่ 116 หมู่ที่ 2, ตำบลสบโขง อำเภออมก๋อย จังหวัดเชียงใหม่ 50310",ภาคเหนือ,องค์การบริหารส่วนตำบล (อบต.),8214.00,2678.00,25000.00,3.07,0.30,300.00,0.04,01-06-22
ทต.บ้านโป่ง,19.37367934,99.17407243,"307 หมู่ 1, ถนนหลวงสาย 1150, ตำบลบ้านโป่ง อำเภอพร้าว จังหวัดเชียงใหม่, 50190",ภาคเหนือ,เทศบาลตำบล (ทต.),3613.00,1511.00,54000.00,2.39,0.03,30.00,0.01,01-06-22
ทต.ขี้เหล็ก ,18.99197852,98.94495127,363 หมู่ 3 ถนนเชียงใหม่-ฝาง ตำบล ขี้เหล็ก อำเภอแม่ริม เชียงใหม่ 50180,ภาคเหนือ,เทศบาลตำบล (ทต.),9370.00,3894.00,NaN,2.41,2.93,2930.00,0.31,01-06-22
อบต.ดอยหล่อ ,18.46651607,98.77824921,ตำบล ดอยหล่อ อำเภอ ดอยหล่อ เชียงใหม่ 50160,ภาคเหนือ,องค์การบริหารส่วนตำบล (อบต.),12227.00,5364.00,45000.00,2.28,NaN,NaN,NaN,01-06-22
อบต.ศรีดงเย็น ,19.65144044,99.14598097,262 บ้านท่า หมู่ที่ 2 ซอย 7 ตำบล ปงตำ อำเภอ ไชยปราการ เชียงใหม่ 50320,ภาคเหนือ,องค์การบริหารส่วนตำบล (อบต.),9493.00,3680.00,108000.00,2.58,5.00,5000.00,0.53,01-06-22
อบต.สะลวง,19.01368322,98.88673702,"เลขที่ 229 หมู่ 3, ตำบลสะลวง อำเภอแม่ริม จังหวัดเชียงใหม่ 50330",ภาคเหนือ,องค์การบริหารส่วนตำบล (อบต.),4847.00,2388.00,30000.00,2.03,2.00,2000.00,0.41,01-06-22
อบต.ม่อนจอง ,17.38027197,98.47732218,ตำบล ม่อนจอง อำเภอ อมก๋อย เชียงใหม่ 50310,ภาคเหนือ,องค์การบริหารส่วนตำบล (อบต.),5700.00,1390.00,5000.00,4.10,2.00,2000.00,0.35,01-06-22
ทต.แม่อาย,20.02967359,99.28483342,ตำบล แม่อาย อำเภอ แม่อาย เชียงใหม่ 50280,ภาคเหนือ,เทศบาลตำบล (ทต.),10619.00,4862.00,31000.00,2.18,4.20,4200.00,0.40,01-06-22
อบต.บ้านเป้า ,19.18950443,98.99851876,ตำบล บ้านเป้า อำเภอแม่แตง เชียงใหม่ 50150,ภาคเหนือ,องค์การบริหารส่วนตำบล (อบต.),4171.00,1200.00,60874.77,3.48,1.00,1000.00,0.24,01-06-22
ทต.ป่าตุ้ม ,19.39735386,99.30040975,ตำบล ป่าตุ้ม อำเภอพร้าว เชียงใหม่ 50190,ภาคเหนือ,เทศบาลตำบล (ทต.),5210.00,2146.00,50000.00,2.43,2.60,2600.00,0.50,01-06-22
อบต.จำป่าหวาย,19.10873602,99.94015985,"องค์การบริหารส่วนตำบลจำป่าหวาย, ตำบลจำป่าหวาย อำเภอเมืองพะเยา จังหวัดพะเยา, 56000",ภาคเหนือ,องค์การบริหารส่วนตำบล (อบต.),8481.00,3240.00,NaN,2.62,NaN,NaN,NaN,01-06-22
อบต.ห้วยยางขาม,19.35645114,100.1460929,ซอย องค์การบริหารส่วนจังหวัด พะเยา 3031 ตำบล ห้วยยางขาม อำเภอ จุน พะเยา 56150,ภาคเหนือ,องค์การบริหารส่วนตำบล (อบต.),5616.00,2324.00,NaN,2.42,2.50,2500.00,0.45,01-06-22
ทม.ดอกคำใต้,19.16123831,99.99463419,14 ถนน หมู่ 10 ตำบล ดอนศรีชุม อำเภอ ดอกคำใต้ พะเยา 56120,ภาคเหนือ,เทศบาลเมือง (ทม.),12628.00,5354.00,72000.00,2.36,10.00,10000.00,0.79,01-06-22
อบต.น้ำเกี๋ยน,18.73224506,100.8246981,"อาคารสำนักงานองค์การบริหารส่วนตำบลน้ำเกี๋ยน, ตำบลน้ำเกี๋ยน อำเภอภูเพียง จังหวัดน่าน 55000",ภาคเหนือ,องค์การบริหารส่วนตำบล (อบต.),2822.00,872.00,NaN,3.24,NaN,NaN,NaN,01-06-22
อบต.แจ้ซ้อน,18.81736061,99.50020007,ตำบล แจ้ซ้อน อำเภอ เมืองปาน ลำปาง 52240,ภาคเหนือ,องค์การบริหารส่วนตำบล (อบต.),7559.00,2883.00,NaN,2.62,6.89,6890.00,0.91,01-06-22
อบต.แจ้ห่ม,18.71190261,99.58245548,ตำบล แจ้ห่ม อำเภอแจ้ห่ม ลำปาง 52120,ภาคเหนือ,องค์การบริหารส่วนตำบล (อบต.),4065.00,1605.00,56454.00,2.53,3.75,3750.00,0.92,01-06-22
ทม.เขลางค์นคร,18.2613008,99.47389073,ทางหลวงหมายเลข 11 อินทร์บุรี-เชียงใหม่ ตำบล ชมพู อำเภอเมืองลำปาง ลำปาง 52100,ภาคเหนือ,เทศบาลเมือง (ทม.),59731.00,25378.00,NaN,2.35,47.50,47500.00,0.80,01-06-22
ทต.หนองช้างคืน,18.6623864,99.01698061,"198 หมู่ 2, ตำบล หนองช้างคืน อำเภอเมืองลำพูน ลำพูน",ภาคเหนือ,เทศบาลตำบล (ทต.),3632.00,1198.00,65000.00,3.03,3.26,3260.00,0.90,01-06-22
ทต.บ้านกลาง,18.57912731,99.06867178,ตำบล บ้านกลาง อำเภอเมืองลำพูน ลำพูน 51000,ภาคเหนือ,เทศบาลตำบล (ทต.),11397.00,11021.00,35565.00,1.03,17.00,17000.00,1.49,01-06-22
อบต.บ้านปลง ,18.07392164,100.0782224,ตำบล สบสาย อำเภอสูงเม่น แพร่ 54130,ภาคเหนือ,องค์การบริหารส่วนตำบล (อบต.),4124.00,1506.00,71344.00,2.74,0.10,104.00,0.03,01-06-22
ทต.หนองหนาม,18.50084599,98.99465488,139 ถนนอ้อมเมืองลำพูน-ป่าซาง ตำบล หนองหนาม เมือง ลำพูน 51000,ภาคเหนือ,เทศบาลตำบล (ทต.),6239.00,2738.00,80000.00,2.28,2.78,2780.00,0.45,01-06-22
อบต.ท่าตุ้ม,18.48788071,98.87904527,"99 หมู่ 4, อาคารสำนักงานองค์การบริหารส่วนตำบลท่าตุ้ม, ตำบลท่าตุ้ม อำเภอป่าซาง จังหวัดลำพูน, 51120",ภาคเหนือ,องค์การบริหารส่วนตำบล (อบต.),7037.00,3025.00,180460.00,2.33,0.00,2.00,0.00,01-06-22
อบต.หนองปลาสะวาย,18.34486075,98.72849405,"99/9, หมู่ 8 ตำบล หนองปลาสะวาย อำเภอ บ้านโฮ่ง ลำพูน 51130",ภาคเหนือ,องค์การบริหารส่วนตำบล (อบต.),3977.00,1504.00,NaN,2.64,2.00,2000.00,0.50,01-06-22
ทต.ลี้ ,17.80369343,98.95010405,96หมู่ 7 ตำบลลี้ อำเภอลี้ ลำพูน 51000,ภาคเหนือ,เทศบาลตำบล (ทต.),8441.00,2985.00,61020.00,2.83,2.72,2716.00,0.32,01-06-22
ทต.หนองยวง,18.42278053,98.79138518,ตำบล หนองยวง อำเภอ เวียงหนองล่อง ลำพูน 51120,ภาคเหนือ,เทศบาลตำบล (ทต.),3692.00,1788.00,NaN,2.06,3.00,3000.00,0.81,01-06-22
ทต.แม่แรง,18.50645709,98.91233291,"199 หมู่2, ตำบลแม่แรง อำเภอป่าซาง จังหวัดลำพูน, 51120",ภาคเหนือ,เทศบาลตำบล (ทต.),7076.00,2895.00,77255.84,2.44,5.00,5000.00,0.71,01-06-22
อบต.ห้วยยาบ,18.67983979,99.14891742,ตำบล ห้วยยาบ อำเภอ บ้านธิ ลำพูน 51180,ภาคเหนือ,องค์การบริหารส่วนตำบล (อบต.),8085.00,3365.00,NaN,2.40,0.26,260.00,0.03,01-06-22
อบต.ตะเคียนปม,18.09031308,99.01177116,ตำบล ตะเคียนปม อำเภอ ทุ่งหัวช้าง ลำพูน 51160,ภาคเหนือ,องค์การบริหารส่วนตำบล (อบต.),6972.00,2419.00,40000.00,2.88,NaN,NaN,NaN,01-06-22
ทต.ก้อ,17.63920917,98.78533754,ตำบล ก้อ อำเภอลี้ ลำพูน 51110,ภาคเหนือ,เทศบาลตำบล (ทต.),2771.00,723.00,NaN,3.83,NaN,NaN,NaN,01-06-22
ทต.ทากาศเหนือ,18.41724159,99.01693847,"273 หมู่2 บ้านแพะยันต์, ตำบลทากาศ อำเภอแม่ทา จังหวัดลำพูน, 51170",ภาคเหนือ,เทศบาลตำบล (ทต.),5152.00,2046.00,62418.67,2.52,0.62,620.00,0.12,01-06-22
ทต.ทุ่งหัวช้าง,18.00345328,99.02745444,ตำบล ทุ่งหัวช้าง อำเภอ ทุ่งหัวช้าง ลำพูน 51160,ภาคเหนือ,เทศบาลตำบล (ทต.),2527.00,1205.00,200000.00,2.10,0.50,500.00,0.20,01-06-22
อบต.นครเจดีย์,18.45313671,98.89895657,หมู่ 8 ต นครเจดีย์ 264 ตำบล นครเจดีย์ อำเภอ ป่าซาง ลำพูน 51120,ภาคเหนือ,องค์การบริหารส่วนตำบล (อบต.),8448.00,4041.00,NaN,2.09,NaN,NaN,NaN,01-06-22
อบต.ทุ่งหัวช้าง ,17.99266006,99.04956563,ตำบล ทุ่งหัวช้าง อำเภอ ทุ่งหัวช้าง ลำพูน 51160,ภาคเหนือ,องค์การบริหารส่วนตำบล (อบต.),6475.00,2431.00,30000.00,2.66,0.20,200.00,0.03,01-06-22
ทต.ป่าไผ่,18.89790266,99.04996515,158 หมู่ที่ 2 ตำบล ป่าไผ่ อำเภอสันทราย เชียงใหม่ 50210,ภาคเหนือ,เทศบาลตำบล (ทต.),9367.00,3597.00,40000.00,2.60,0.45,450.00,0.05,01-06-22
อบต.บ้านเรือน,18.50837082,98.87582866,"99 หมู่ 7, ถนนสายสบทา-ท่าลี่, ตำบลบ้านเรือน อำเภอป่าซาง จังหวัดลำพูน, 51120",ภาคเหนือ,องค์การบริหารส่วนตำบล (อบต.),4061.00,1652.00,72771.00,2.46,3.69,3690.00,0.91,01-06-22
ทต.ทาขุมเงิน,18.40761883,98.97262462,ตำบล ทาขุมเงิน อำเภอแม่ทา ลำพูน 51170,ภาคเหนือ,เทศบาลตำบล (ทต.),6033.00,2605.00,NaN,2.32,0.20,200.00,0.03,01-06-22
ทต.ทาทุ่งหลวง,18.4276014,99.03833997,ตำบล ทาทุ่งหลวง อำเภอแม่ทา ลำพูน 51170,ภาคเหนือ,เทศบาลตำบล (ทต.),3737.00,1859.00,NaN,2.01,2.00,2000.00,0.54,01-06-22
ทต.ป่าสัก,18.54806438,99.03554878,อาคารสำนักงานเทศบาล ตำบล ป่าสัก อำเภอเมือง ลำพูน 51000,ภาคเหนือ,เทศบาลตำบล (ทต.),14586.00,7546.00,10000.00,1.93,9.00,9000.00,0.62,01-06-22
ทต.วังผาง,18.42548106,98.73986432,หมู่ 9 ตำบลวังผาง อำเภอ เวียงหนองล่อง ลำพูน 51120,ภาคเหนือ,เทศบาลตำบล (ทต.),7780.00,3190.00,150000.00,2.44,2.75,2750.00,0.35,01-06-22
ทต.บ้านโฮ่ง,18.33108742,98.81903912,263 ตำบล บ้านโฮ่ง อำเภอ บ้านโฮ่ง ลำพูน 51130,ภาคเหนือ,เทศบาลตำบล (ทต.),7686.00,3617.00,300.00,2.12,5.00,5000.00,0.65,01-06-22
ทต.ทากาศ,18.41557513,99.00372351,ตำบล ทากาศ อำเภอแม่ทา ลำพูน 51170,ภาคเหนือ,เทศบาลตำบล (ทต.),3098.00,1124.00,77346.00,2.76,1.25,1250.00,0.40,01-06-22
ทต.หนองล่อง ,18.40077723,98.71706064,ตำบล หนองล่อง อำเภอ เวียงหนองล่อง ลำพูน 51120,ภาคเหนือ,เทศบาลตำบล (ทต.),5632.00,2511.00,NaN,2.24,5.74,5744.00,1.02,01-06-22
อบต.น้ำดิบ,18.46497943,98.82536621,7 หมู่ 7 ถนนหลวงสาย 1031 ตำบล น้ำดิบ อำเภอ ป่าซาง ลำพูน 51120,ภาคเหนือ,องค์การบริหารส่วนตำบล (อบต.),9316.00,4059.00,98310.37,2.30,NaN,NaN,NaN,01-06-22
ทต.เหมืองง่า,18.60465986,99.02532935,"888 หมู่ ที่ 2, ตำบล เหมืองง่า อำเภอเมืองลำพูน ลำพูน 51000",ภาคเหนือ,เทศบาลตำบล (ทต.),15930.00,8254.00,NaN,1.93,11.00,11000.00,0.69,01-06-22
ทต.อุโมงค์ ,18.65366708,99.03863682,ตำบล อุโมงค์ อำเภอเมืองลำพูน ลำพูน 51150,ภาคเหนือ,เทศบาลตำบล (ทต.),12866.00,5930.00,92663.60,2.17,6.20,6200.00,0.48,01-06-22
ทต.เวียงยอง,18.5762904,99.01633919,ตำบล เวียงยอง อำเภอเมืองลำพูน ลำพูน 51000,ภาคเหนือ,เทศบาลตำบล (ทต.),6667.00,3100.00,98325.00,2.15,5.00,5000.00,0.75,01-06-22
ทต.เหมืองจี้,18.4684786,98.96787838,"399 หมู่12 บ้านเชตวัน, ตำบลเหมืองจี้ อำเภอเมืองลำพูน จังหวัดลำพูน, 51000",ภาคเหนือ,เทศบาลตำบล (ทต.),5622.00,2380.00,109512.00,2.36,0.72,720.00,0.13,01-06-22
ทต.วังผาง,18.42543347,98.73987166,หมู่ 9 ตำบลวังผาง อำเภอ เวียงหนองล่อง ลำพูน 51120,ภาคเหนือ,เทศบาลตำบล (ทต.),7780.00,3190.00,150000.00,2.44,2.75,2750.00,0.35,01-06-22
ทต.มะเขือแจ้,18.59094311,99.08042373,203 ถนน สันป่าฝ้าย ตำบลมะเขือแจ้ อำเภอเมืองลำพูน ลำพูน 51000,ภาคเหนือ,เทศบาลตำบล (ทต.),15915.00,5782.00,NaN,2.75,8.00,8000.00,0.50,01-06-22
ทต.ต้นธง,18.56318232,98.9968736,200 หมู่10 ตำบล ต้นธง อำเภอเมืองลำพูน ลำพูน 51000,ภาคเหนือ,เทศบาลตำบล (ทต.),13676.00,5670.00,3698.00,2.41,6.13,6130.00,0.45,01-06-22
ทต.ศรีบัวบาน,18.51901481,99.08130605,ตำบลศรีบัวบาน อำเภอเมืองลำพูน ลำพูน 51000,ภาคเหนือ,เทศบาลตำบล (ทต.),8640.00,4022.00,NaN,2.15,3.82,3820.00,0.44,01-06-22
อบต.ทากาศ,18.46136258,99.13028254,273 ตำบลทากาศ อำเภอแม่ทา ลำพูน 51170,ภาคเหนือ,องค์การบริหารส่วนตำบล (อบต.),5152.00,2046.00,62418.67,2.52,0.62,620.00,0.12,01-06-22
อบต.บ้านปวง,17.87085686,99.06926962,หมู่ที่ 9 94 ตำบล บ้านปวง อำเภอ ทุ่งหัวช้าง ลำพูน 51160,ภาคเหนือ,องค์การบริหารส่วนตำบล (อบต.),4127.00,1506.00,71344.00,2.74,0.10,104.00,0.03,01-06-22
อบต.ปางมะผ้า,19.58970877,98.21455528,ตำบล ปางมะผ้า อำเภอปางมะผ้า แม่ฮ่องสอน 58150,ภาคเหนือ,องค์การบริหารส่วนตำบล (อบต.),4460.00,1624.00,50000.00,2.75,0.50,500.00,0.11,01-06-22
อบต.เมืองแปง,19.21606935,98.36603377,ตำบล เมืองแปง อำเภอปาย แม่ฮ่องสอน 58130,ภาคเหนือ,องค์การบริหารส่วนตำบล (อบต.),4311.00,1250.00,30000.00,3.45,0.06,63.00,0.01,01-06-22
ทต.เมืองเก่า,17.03998135,99.64609384,ตำบล เมืองเก่า อำเภอเมืองสุโขทัย สุโขทัย 64210,ภาคเหนือ,เทศบาลตำบล (ทต.),7376.00,2547.00,12500.00,2.90,4.50,4500.00,0.61,01-06-22
อบต.หนองกระดิ่ง,16.80975683,99.81846315,"หมู่ 4, อาคารองค์การบริหารส่วนตำบลหนองกระดิ่ง, ตำบลหนองกระดิ่ง อำเภอคีรีมาศ จังหวัดสุโขทัย, 64160",ภาคเหนือ,องค์การบริหารส่วนตำบล (อบต.),3386.00,1006.00,30000.00,3.37,0.72,715.00,0.21,01-06-22
อบต.บ้านสวน,17.03533921,99.88727488,"1 หมู่3, ถนนเทศบาล5, ตำบลบ้านสวน อำเภอเมืองสุโขทัย จังหวัดสุโขทัย, 64220 64220",ภาคเหนือ,องค์การบริหารส่วนตำบล (อบต.),9076.00,3360.00,NaN,2.70,2.30,2300.00,0.25,01-06-22
อบต.วังแดง,17.47931991,100.1245773,ตำบล วังแดง อำเภอตรอน อุตรดิตถ์ 53140,ภาคเหนือ,องค์การบริหารส่วนตำบล (อบต.),8831.00,3218.00,30000.00,2.74,4.37,4370.00,0.49,01-06-22
อบต.น้ำพี้,17.56187636,100.2781562,109 หมู่ที่ 2 ตำบล น้ำพี้ อำเภอ ทองแสนขัน อุตรดิตถ์ 53230,ภาคเหนือ,องค์การบริหารส่วนตำบล (อบต.),5442.00,1983.00,108000.00,2.74,2.00,2000.00,0.37,01-06-22
อบต.บ้านหม้อ,17.24875583,100.0860819,"เลข ที่ 999 หมู่ ที่ 4 อาคาร องค์การ บริหาร ส่วน ตำบล บ้านหม้อ, ตำบล บ้านหม้อ อำเภอพิชัย อุตรดิตถ์ 53120",ภาคเหนือ,องค์การบริหารส่วนตำบล (อบต.),5754.00,2043.00,NaN,2.82,3.00,3000.00,0.52,01-06-22
ทต.ท่าเสา,15.99008329,100.2220734,339 หมู่ที่1 ตำบล ท่าเสา อำเภอ โพทะเล พิจิตร 66130,ภาคเหนือ,เทศบาลตำบล (ทต.),14374.00,7273.00,40000.00,1.98,11.00,11000.00,0.77,01-06-22
อบต.ร้องกวาง,18.35904257,100.3338196,186 หมู่ที่ 6 บ้านห้วยกุลัว ถนน ยันตรกิจโกศล ตำบล ร้องกวาง อำเภอ ร้องกวาง แพร่ 54140,ภาคเหนือ,องค์การบริหารส่วนตำบล (อบต.),2328.00,938.00,NaN,2.48,0.04,36.00,0.02,01-06-22
อบต.เด่นชัย,17.97868746,100.029597,บ้านห้วยน้ำพริก 304 หมู่ที่ 5 ถ.ยันตรกิจโกศล ตำบล เด่นชัย อำเภอเด่นชัย แพร่ 54110,ภาคเหนือ,องค์การบริหารส่วนตำบล (อบต.),1312.00,263.00,60000.00,4.99,1.40,1400.00,1.07,01-06-22
อบต.แม่ระมาด,16.99011543,98.51776676,"444 4, ถนน ลาดยางหมู่บ้านบ้านแม่ละมาดน้อย-บ้านกก ตำบล แม่ระมาด อำเภอแม่ระมาด ตาก 63140",ภาคเหนือ,องค์การบริหารส่วนตำบล (อบต.),5897.00,2552.00,4000.00,2.31,2.00,2000.00,0.34,01-06-22
อบต.พบพระ,16.41619375,98.68721798,ตำบล พบพระ อำเภอ พบพระ ตาก 63160,ภาคเหนือ,องค์การบริหารส่วนตำบล (อบต.),11377.00,2329.00,60000.00,4.88,4.00,4000.00,0.35,01-06-22
อบต.อุ้มผาง,16.00143067,98.86856316,268 หมู่ 3 บ้าน กิ่ว ห้าง ตำบล อุ้มผาง อำเภออุ้มผาง ตาก 63170,ภาคเหนือ,องค์การบริหารส่วนตำบล (อบต.),3937.00,2187.00,50000.00,1.80,NaN,NaN,NaN,01-06-22
ทต.ไม้งาม,16.9097169,99.09862818,หมู่ 4 ตำบล ไม้งาม อำเภอเมืองตาก ตาก 63000,ภาคเหนือ,เทศบาลตำบล (ทต.),11664.00,6353.00,NaN,1.84,NaN,NaN,NaN,01-06-22
อบต.เชียงทอง,16.64656912,99.23092317,ตำบลเชียงทอง อำเภอวังเจ้า ตาก 63000,ภาคเหนือ,องค์การบริหารส่วนตำบล (อบต.),14858.00,4335.00,NaN,3.43,2.50,2500.00,0.17,01-06-22
ทต.แม่กลอง,16.05202079,98.84193828,ตำบล แม่กลอง อำเภออุ้มผาง ตาก 63170,ภาคเหนือ,เทศบาลตำบล (ทต.),6022.00,2194.00,NaN,2.74,6.00,6000.00,1.00,01-06-22
อบต.พะวอ,16.8071388,98.73865627,ตำบล พะวอ อำเภอแม่สอด ตาก 63110,ภาคเหนือ,องค์การบริหารส่วนตำบล (อบต.),7322.00,2482.00,NaN,2.95,NaN,NaN,NaN,01-06-22
ทต.วังเจ้า,16.68596336,99.25438681,789 หมู่ 1 ตำบล วังเจ้า อำเภอวังเจ้า ตาก 63000,ภาคเหนือ,เทศบาลตำบล (ทต.),4234.00,1919.00,60000.00,2.21,2.50,2500.00,0.59,01-06-22
อบต.แม่ตื่น,17.40651006,98.4625057,199 หมู่ 1 ตำบล แม่ตื่น อำเภอ อมก๋อย เชียงใหม่ 50180,ภาคเหนือ,องค์การบริหารส่วนตำบล (อบต.),10327.00,3596.00,NaN,2.87,NaN,NaN,NaN,01-06-22
อบต.ป่ามะม่วง,16.88267719,99.11136591,"หมู่ 6 องค์การบริหารส่วนตำบลป่ามะม่วง, ตำบลป่ามะม่วง อำเภอเมือง จังหวัดตาก 63000",ภาคเหนือ,องค์การบริหารส่วนตำบล (อบต.),4355.00,1938.00,100000.00,2.25,1.00,1000.00,0.23,01-06-22
ทต.หนองบัวใต้,16.8229324,99.12952672,"หมู่ 1, ตำบลหนองบัวใต้ อำเภอเมือง ตาก 63000",ภาคเหนือ,เทศบาลตำบล (ทต.),6246.00,2757.00,5000.00,2.27,NaN,NaN,NaN,01-06-22
ทต.แม่จะเรา,16.96206499,98.58098054,ตำบล แม่จะเรา อำเภอแม่ระมาด ตาก 63140,ภาคเหนือ,เทศบาลตำบล (ทต.),5770.00,2150.00,5000.00,2.68,NaN,NaN,NaN,01-06-22
ทต.แม่จัน,16.0326722,98.66724854,"หมู่ 2, ตำบลแม่จัน อำเภออุ้มผาง จังหวัดตาก, 63170",ภาคเหนือ,เทศบาลตำบล (ทต.),22103.00,3069.00,2098.00,7.20,NaN,NaN,NaN,01-06-22
อบต.ท่าโพธิ์,16.7636048,100.1801211,อาคารสำนักงานองค์การบริหารส่วน ตำบล ท่าโพธิ์ อำเภอเมืองพิษณุโลก พิษณุโลก 65000,ภาคเหนือ,องค์การบริหารส่วนตำบล (อบต.),20173.00,9290.00,NaN,2.17,4.50,4500.00,0.22,01-06-22
อบต.วัดจันทร์,16.80350197,100.235137,85 หมู่ 8 ตำบลวัดจันทร์ อำเภอเมืองพิษณุโลก พิษณุโลก 65000,ภาคเหนือ,องค์การบริหารส่วนตำบล (อบต.),8708.00,4437.00,111397.77,1.96,8.00,8000.00,0.92,01-06-22
ทต.บางระกำ,16.75336506,100.1159739,"หมู่ 7, ตำบลบางระกำ อำเภอบางระกำ จังหวัดพิษณุโลก, 65140 65140",ภาคเหนือ,เทศบาลตำบล (ทต.),4582.00,1925.00,NaN,2.38,4.25,4250.00,0.93,01-06-22
ทต.บ้านคลอง,16.83523614,100.2317198,ตำบลพลายชุมพล อำเภอเมืองพิษณุโลก พิษณุโลก 65000,ภาคเหนือ,เทศบาลตำบล (ทต.),13562.00,6185.00,NaN,2.19,13.83,13830.00,1.02,01-06-22
ทน.พิษณุโลก,16.79541705,100.2327868,1299 ถนนบรมไตรโลกนารถ2 ตำบลวัดจันทร์ อำเภอเมืองพิษณุโลก พิษณุโลก 65000,ภาคเหนือ,เทศบาลนคร (ทน.),64288.00,36771.00,NaN,1.75,90.00,90000.00,1.40,01-06-22
อบต.วัดพริก,16.72161895,100.2458919,ตำบล วัดพริก อำเภอเมืองพิษณุโลก พิษณุโลก 65230,ภาคเหนือ,องค์การบริหารส่วนตำบล (อบต.),8317.00,NaN,NaN,NaN,NaN,NaN,NaN,01-06-22
อบต.บึงพระ,16.74867625,100.2688763,ตำบล บึงพระ อำเภอเมืองพิษณุโลก พิษณุโลก 65000,ภาคเหนือ,องค์การบริหารส่วนตำบล (อบต.),18592.00,5102.00,30000.00,3.64,12.50,12500.00,0.67,01-06-22
ทต.พลายชุมพล,16.8589493,100.2278012,ซอย ระนาดเอก หมู่ 2 พิษณุโลก อำเภอเมืองพิษณุโลก พิษณุโลก 65000,ภาคเหนือ,เทศบาลตำบล (ทต.),7655.00,4165.00,120000.00,1.84,8.83,8830.00,1.15,01-06-22
ทม.อรัญญิก,16.81457684,100.3050955,911 ตำบลอรัญญิก อำเภอเมืองพิษณุโลก พิษณุโลก 65000,ภาคเหนือ,เทศบาลเมือง (ทม.),30414.00,14023.00,NaN,2.17,19.00,19000.00,0.62,01-06-22
อบต.ดอนทอง,16.90319831,100.3562633,ตำบล บ้านป่า อำเภอเมืองพิษณุโลก พิษณุโลก 65000,ภาคเหนือ,องค์การบริหารส่วนตำบล (อบต.),13356.00,5683.00,100000.00,2.35,1.47,1470.00,0.11,01-06-22
อบต.วังทอง,16.8336583,100.4359191,"ถนน พิษณุโลก - วังทอง, ตำบลวังทอง จ อ.วังทอง ตำบลวังทอง อำเภอวังทอง พิษณุโลก 65130",ภาคเหนือ,องค์การบริหารส่วนตำบล (อบต.),15307.00,5770.00,8000.00,2.65,7.00,7000.00,0.46,01-06-22
อบต.คลองกระจัง,15.37602382,101.1162995,ตำบล คลองกระจัง อำเภอศรีเทพ เพชรบูรณ์ 67170,ภาคเหนือ,องค์การบริหารส่วนตำบล (อบต.),14004.00,4285.00,NaN,3.27,NaN,NaN,NaN,01-06-22
อบต.ซับไม้แดง,15.7650102,100.9390964,ตำบล ซับไม้แดง อำเภอบึงสามพัน เพชรบูรณ์ 67160,ภาคเหนือ,องค์การบริหารส่วนตำบล (อบต.),7630.00,2332.00,38000.00,3.27,0.63,630.00,0.08,01-06-22
อบต.น้ำหนาว,16.7700613,101.6692176,241 ตำบล น้ำหนาว อำเภอ น้ำหนาว เพชรบูรณ์ 67260,ภาคเหนือ,องค์การบริหารส่วนตำบล (อบต.),5330.00,2154.00,12000.00,2.47,1.50,1500.00,0.28,01-06-22
ทม.เพชรบูรณ์,16.41859178,101.1581636,ตำบล ในเมือง อำเภอเมืองเพชรบูรณ์ เพชรบูรณ์ 67000,ภาคเหนือ,เทศบาลเมือง (ทม.),21600.00,12500.00,NaN,1.73,46.90,46900.00,2.17,01-06-22
อบต.หลักด่าน,16.96326143,101.5041136,157 ตำบล หลักด่าน อำเภอ น้ำหนาว เพชรบูรณ์ 67260,ภาคเหนือ,องค์การบริหารส่วนตำบล (อบต.),3999.00,1257.00,6000.00,3.18,1.00,1000.00,0.25,01-06-22
อบต.ท่าข้าม,16.16475329,100.8073862,333 ตำบล ท่าข้าม อำเภอชนแดน เพชรบูรณ์ 67150,ภาคเหนือ,องค์การบริหารส่วนตำบล (อบต.),6457.00,2619.00,92672.61,2.47,0.30,300.00,0.05,01-06-22
ทต.หนองบัว,15.87031783,100.5968208,26/2 หมู่ที่ 9 ต ตำบล หนองกลับ อำเภอ หนองบัว นครสวรรค์ 60110,ภาคเหนือ,เทศบาลตำบล (ทต.),11617.00,5021.00,120000.00,2.31,8.00,8000.00,0.69,01-06-22
อบต.วังใหญ่,15.7949041,100.4214325,"99, ตำบล วังใหญ่ อำเภอ ท่าตะโก นครสวรรค์ 60160",ภาคเหนือ,องค์การบริหารส่วนตำบล (อบต.),2509.00,1029.00,NaN,2.44,2.00,2000.00,0.80,01-06-22
อบต.ทำนบ,15.58501479,100.5519043,ตำบล ทำนบ อำเภอ ท่าตะโก นครสวรรค์ 60160,ภาคเหนือ,องค์การบริหารส่วนตำบล (อบต.),3581.00,1333.00,83040.55,2.69,3.26,3260.00,0.91,01-06-22
อบต.หนองกรด,15.71708503,100.0428181,ถนนเข้าอบต.หนองกรด ตำบล หนองกรด อำเภอเมืองนครสวรรค์ นครสวรรค์ 60240,ภาคเหนือ,องค์การบริหารส่วนตำบล (อบต.),11745.00,3950.00,60000.00,2.97,2.00,2000.00,0.17,01-06-22
ทม.ตาคลี,15.2335137,100.3561545,"เลขที่ 1, ซอย, 3, 60140 ถนน ประชาตาคลี ตำบล ตาคลี อำเภอตาคลี นครสวรรค์ 60140",ภาคเหนือ,เทศบาลเมือง (ทม.),23206.00,9895.00,NaN,2.35,42.53,42530.00,1.83,01-06-22
ทต.อุดมธัญญา,15.48381179,100.4259366,ตำบล อุดมธัญญา อำเภอ ตากฟ้า นครสวรรค์ 60190,ภาคเหนือ,เทศบาลตำบล (ทต.),10262.00,3711.00,90000.00,2.77,NaN,NaN,NaN,01-06-22
ทน.นครสวรรค์,15.7135204,100.1355881,ตำบลปากน้ำโพ อ.เมือง นครสวรรค์ 60000,ภาคเหนือ,เทศบาลนคร (ทน.),81267.00,19024.00,99627.66,4.27,256.00,256000.00,3.15,01-06-22
ทต.ลาดยาว,15.75406392,99.78084322,ตำบล ลาดยาว อำเภอลาดยาว นครสวรรค์ 60150,ภาคเหนือ,เทศบาลตำบล (ทต.),6049.00,3478.00,NaN,1.74,7.00,7000.00,1.16,01-06-22
อบต.หูกวาง,15.88996936,100.0110824,ตำบล หูกวาง อำเภอบรรพตพิสัย นครสวรรค์ 60180,ภาคเหนือ,องค์การบริหารส่วนตำบล (อบต.),4365.00,1447.00,NaN,3.02,1.00,1000.00,0.23,01-06-22
อบต.ทุ่งนางาม,15.38009483,99.5904882,108 หมู่ที่ 8ตำบล ทุ่งนางาม อำเภอ ลานสัก อุทัยธานี 61170,ภาคเหนือ,องค์การบริหารส่วนตำบล (อบต.),7414.00,2419.00,21376.75,3.06,2.00,2000.00,0.27,01-06-22
อบต.ห้วยแห้ง,15.13114648,99.52485859,ตำบล ห้วยแห้ง อำเภอบ้านไร่ อุทัยธานี 61140,ภาคเหนือ,องค์การบริหารส่วนตำบล (อบต.),4881.00,1640.00,NaN,2.98,0.44,435.00,0.09,01-06-22
อบต.ท่าซุง,15.31972992,100.0662135,ตำบล ท่าซุง อำเภอเมืองอุทัยธานี อุทัยธานี 61000,ภาคเหนือ,องค์การบริหารส่วนตำบล (อบต.),3810.00,1385.00,NaN,2.75,1.10,1100.00,0.29,01-06-22
ทม.อุทัยธานี,15.37677337,100.0341936,147 ถนน ศรีอุทัย ตำบล อุทัยใหม่ อำเภอเมืองอุทัยธานี อุทัยธานี 61000,ภาคเหนือ,เทศบาลเมือง (ทม.),15288.00,9279.00,162000.00,1.65,30.00,30000.00,1.96,01-06-22
ทต.ทัพทัน,15.45705506,99.89595843,ตำบล ทัพทัน อำเภอ ทัพทัน อุทัยธานี 61120,ภาคเหนือ,เทศบาลตำบล (ทต.),8836.00,3630.00,NaN,2.43,1.25,1250.00,0.14,01-06-22
อบต.ทุ่งพง,15.42311952,99.85458842,ตำบล ทุ่งพง อำเภอ หนองฉาง อุทัยธานี 61110,ภาคเหนือ,องค์การบริหารส่วนตำบล (อบต.),2161.00,707.00,NaN,3.06,1.03,1025.50,0.47,01-06-22
อบต.ทองหลาง,15.34075364,99.57596379,ตำบล ทองหลาง อำเภอ ห้วยคต อุทัยธานี 61170,ภาคเหนือ,องค์การบริหารส่วนตำบล (อบต.),7773.00,2692.00,10000.00,2.89,5.00,5000.00,0.64,01-06-22
อบต.หนองไผ่,15.36116096,99.90306301,ตำบล หนองไผ่ อำเภอ หนองขาหย่าง อุทัยธานี 61130,ภาคเหนือ,องค์การบริหารส่วนตำบล (อบต.),2432.00,841.00,67067.51,2.89,NaN,NaN,NaN,01-06-22
ทต.ลานสัก,15.45475862,99.56346378,222 หมู่ที่ 5 ตำบล ลานสัก อำเภอลานสัก อุทัยธานี 61160,ภาคเหนือ,เทศบาลตำบล (ทต.),3459.00,2117.00,NaN,1.63,2.98,2980.00,0.86,01-06-22
ทต.เมืองการุ้ง,15.17597061,99.69284508,ตำบล เมืองการุ้ง อำเภอบ้านไร่ อุทัยธานี 61180,ภาคเหนือ,เทศบาลตำบล (ทต.),2134.00,993.00,30000.00,2.15,1.50,1500.00,0.70,01-06-22
อบต.นครชุม,16.45855777,99.4933228,ตำบล ท่าขุนราม อำเภอเมืองกำแพงเพชร กำแพงเพชร 62000,ภาคเหนือ,องค์การบริหารส่วนตำบล (อบต.),10501.00,5086.00,NaN,2.06,NaN,NaN,NaN,01-06-22
อบต.ทรงธรรม,16.54022191,99.4671759,ตำบลทรงธรรม อำเภอเมืองกำแพงเพชร กำแพงเพชร 62000,ภาคเหนือ,องค์การบริหารส่วนตำบล (อบต.),7631.00,2725.00,NaN,2.80,2.00,2000.00,0.26,01-06-22
อบต. แป-ระ,6.835078705,99.92931859,ตำบล แป-ระ อำเภอ ท่าแพ สตูล 91150,ภาคใต้,องค์การบริหารส่วนตำบล (อบต.),6245.00,1842.00,NaN,3.39,0.53,530.00,0.08,01-06-22
ทต.ควนขนุน,7.734591386,100.0123967,"222 หมู่ 5, ตำบลควนขนุน อำเภอควนขนุน จังหวัดพัทลุง, 93110",ภาคใต้,เทศบาลตำบล (ทต.),1150.00,297.00,40000.00,3.87,1.00,1000.00,0.87,01-06-22
อบต.บางขัน,8.049926204,99.43766061,หมู่ที่ 8 51 ตำบล บางขัน อำเภอ บางขัน นครศรีธรรมราช 80360,ภาคใต้,องค์การบริหารส่วนตำบล (อบต.),14040.00,4647.00,120000.00,3.02,2.00,2000.00,0.14,01-06-22
อบต.นาสัก,10.17467012,99.03331505,ตำบล นาสัก อำเภอสวี ชุมพร 86130,ภาคใต้,องค์การบริหารส่วนตำบล (อบต.),13224.00,6208.00,NaN,2.13,12.03,12030.00,0.91,01-06-22
ทต.พังลา,6.776051079,100.4565462,23 ถ. กาญจนวนิช ตำบล พังลา อำเภอสะเดา สงขลา 90170,ภาคใต้,เทศบาลตำบล (ทต.),8334.00,2965.00,83121.55,2.81,7.81,7810.00,0.94,01-06-22
ทม.บ้านพรุ,6.947877547,100.4793125, ตำบลบ้านพรุ อำเภอหาดใหญ่ สงขลา 90250,ภาคใต้,เทศบาลเมือง (ทม.),6729.00,1519.00,15481.00,4.43,NaN,NaN,NaN,01-06-22
อบต.เขามีเกียรติ,6.768795372,100.50379,34/1 ถนนคลองแงะ-นาทวี ตำบล เขามีเกียรติ อำเภอสะเดา สงขลา 90170,ภาคใต้,องค์การบริหารส่วนตำบล (อบต.),5970.00,1945.00,NaN,3.07,2.02,2020.00,0.34,01-06-22
ทน.ตรัง,7.557422982,99.61010817,สำนักงานเทศบาลเมืองตรัง ตำบล ทับเที่ยง อำเภอเมืองตรัง ตรัง 92000,ภาคใต้,เทศบาลนคร (ทน.),56741.00,25387.00,70000.00,2.24,60.00,60000.00,1.06,01-06-22
ทน.ภูเก็ต,7.889906802,98.39938688,52/1 นริศร ตำบลตลาดใหญ่ อำเภอเมืองภูเก็ต ภูเก็ต 83000,ภาคใต้,เทศบาลนคร (ทน.),79499.00,26198.00,14385.00,3.03,124.00,124000.00,1.56,01-06-22
อบต.โคกเคียน,8.846871668,98.37129431,"23/1, ถนนทางหลวง 401, ตำบลโคกเคียน อำเภอตะกั่วป่า จังหวัดพังงา, 82110",ภาคใต้,องค์การบริหารส่วนตำบล (อบต.),22399.00,8401.00,NaN,2.67,15.00,15000.00,0.67,01-06-22
อบต.ลุโบะยิไร,6.66004431,101.4125033,ตำบล ลุโบะยิไร อำเภอ มายอ ปัตตานี 94140,ภาคใต้,องค์การบริหารส่วนตำบล (อบต.),11852.00,2379.00,NaN,4.98,NaN,NaN,NaN,01-06-22
ทม.กระบี่,8.085081174,98.90665682,292 ถนน มหาราช ตำบล ปากน้ำ อำเภอเมืองกระบี่ กระบี่ 81000,ภาคใต้,เทศบาลเมือง (ทม.),32529.00,17608.00,NaN,1.85,42.00,42000.00,1.29,01-06-22
ทต.ทรายขาว,7.751575826,99.2619295,145 หมู่ 2 ตำบล ทรายขาว อำเภอคลองท่อม กระบี่ 81170,ภาคใต้,เทศบาลตำบล (ทต.),11026.00,3686.00,100000.00,2.99,NaN,NaN,NaN,01-06-22
ทต.คลองพนพัฒนา,7.833800688,99.17195262,ตำบล คลองพน อำเภอคลองท่อม กระบี่ 81170,ภาคใต้,เทศบาลตำบล (ทต.),17388.00,5023.00,144000.00,3.46,3.69,3690.00,0.21,01-06-22
ทม.หลังสวน,9.951931501,99.08134049,244 ถนนหลังสวน 8 ตำบล หลังสวน อำเภอหลังสวน ชุมพร 86110,ภาคใต้,เทศบาลเมือง (ทม.),10984.00,3679.00,108000.00,2.99,NaN,NaN,NaN,01-06-22
อบต.นาสัก,10.1746745,99.03327295,ตำบล นาสัก อำเภอสวี ชุมพร 86130,ภาคใต้,องค์การบริหารส่วนตำบล (อบต.),13224.00,6208.00,NaN,2.13,NaN,NaN,NaN,01-06-22
อบต.รับร่อ,10.61853796,99.10724891, 62 อำเภอท่าแซะ ชุมพร 86190,ภาคใต้,องค์การบริหารส่วนตำบล (อบต.),20123.00,9110.00,50000.00,2.21,4.00,4000.00,0.20,01-06-22
อบต.สองพี่น้อง,10.89165305,99.25210854,ตำบล สองพี่น้อง อำเภอท่าแซะ ชุมพร 86140,ภาคใต้,องค์การบริหารส่วนตำบล (อบต.),9898.00,3159.00,60410.00,3.13,12.00,12000.00,1.21,01-06-22
อบต.หงษ์เจริญ,10.78043898,99.19100145,ตำบล หงษ์เจริญ อำเภอท่าแซะ ชุมพร 86140,ภาคใต้,องค์การบริหารส่วนตำบล (อบต.),11976.00,4859.00,91000.00,2.46,10.50,10500.00,0.88,01-06-22
ทต.นาเมืองเพชร,7.548055821,99.47226471,"99/1 หมู่ที่ 3, ตำบลนาเมืองเพชร อำเภอสิเกา จังหวัดตรัง 92000",ภาคใต้,เทศบาลตำบล (ทต.),5190.00,2034.00,80000.00,2.55,NaN,NaN,NaN,01-06-22
ทต.วังมะปรางเหนือ,7.736616701,99.39727318,261 ตำบล วังมะปราง อำเภอ วังวิเศษ ตรัง 92220,ภาคใต้,เทศบาลตำบล (ทต.),2989.00,1324.00,30000.00,2.26,3.20,3200.00,1.07,01-06-22
ทม.ตรัง,7.557527671,99.61007441,ตำบลทับเที่ยง อำเภอเมืองตรง จังหวัดตรัง,ภาคใต้,เทศบาลเมือง (ทม.),11927.00,4997.00,159388.07,2.39,8.10,8100.00,0.68,01-06-22
ทต.นาตาล่วง,7.591270925,99.594831,35 หมู่ที่ 2 ตำบลนาตาล่วง อำเภอเมือง นาตาล่วง เมือง ตรัง 92000,ภาคใต้,เทศบาลตำบล (ทต.),7481.00,3586.00,205345.18,2.09,3.00,3000.00,0.40,01-06-22
อบต.น้ำผุด,7.659302433,99.68076106,296/2 4123 ตำบล น้ำผุด อำเภอเมืองตรัง ตรัง 92000,ภาคใต้,องค์การบริหารส่วนตำบล (อบต.),10361.00,3246.00,5022.00,3.19,2.93,2929.60,0.28,01-06-22
อบต.ปะเหลียน,7.329740309,99.8074899,"100 หมู่ ที่ 1, ตำบล ปะเหลียน อำเภอ ปะเหลียน ตรัง",ภาคใต้,องค์การบริหารส่วนตำบล (อบต.),12423.00,4312.00,NaN,2.88,11.30,11300.00,0.91,01-06-22
อบต.อ่าวตง,7.855782272,99.3846225,"องค์การบริหารส่วนตำบลอ่าวตง, ตำบลอ่าวตง อำเภอวังวิเศษ จังหวัดตรัง, 92220",ภาคใต้,องค์การบริหารส่วนตำบล (อบต.),10997.00,3644.00,NaN,3.02,1.50,1500.00,0.14,01-06-22
ทต.ทุ่งใส,9.055258922,99.83973492,ถ. สุราษธานี - นครศรีธรรมราช ตำบล ทุ่งใส อำเภอ สิชล นครศรีธรรมราช 80120,ภาคใต้,เทศบาลตำบล (ทต.),11296.00,3477.00,NaN,3.25,11.52,11520.00,1.02,01-06-22
อบต.ควนพัง,8.147508443,99.95466278,ตำบล ควนพัง อำเภอร่อนพิบูลย์ นครศรีธรรมราช 80130,ภาคใต้,องค์การบริหารส่วนตำบล (อบต.),12965.00,3866.00,144000.00,3.35,1.00,1000.00,0.08,01-06-22
อบต.ท่าซัก,8.453725006,99.99698194,81 ตำบล ท่าซัก อำเภอเมืองนครศรีธรรมราช นครศรีธรรมราช 80000,ภาคใต้,องค์การบริหารส่วนตำบล (อบต.),12731.00,5899.00,NaN,2.16,8.00,8000.00,0.63,01-06-22
อบต.ท่าเรือ,8.304535165,99.99000347,106​/1 ท่าเรือ เมือง นครศรีธรรมราช 80000,ภาคใต้,องค์การบริหารส่วนตำบล (อบต.),22161.00,8012.00,50000.00,2.77,7.00,7000.00,0.32,01-06-22
อบต.สวนหลวง,8.135681669,100.0726979,ตำบล สวนหลวง อำเภอ เฉลิมพระเกียรติ นครศรีธรรมราช 80190,ภาคใต้,องค์การบริหารส่วนตำบล (อบต.),10579.00,3893.00,NaN,2.72,0.80,800.00,0.08,01-06-22
ทต.กะปาง,8.041624877,99.64999665,340 ถนน ทุ่งสง-ห้วยยอด ตำบล กะปาง อำเภอทุ่งสง นครศรีธรรมราช 80310,ภาคใต้,เทศบาลตำบล (ทต.),15472.00,6230.00,30000.00,2.48,0.45,450.00,0.03,01-06-22
อบต.กรุงหยัน,8.20937869,99.4316392,ตำบล กรุงหยัน อำเภอ ทุ่งใหญ่ นครศรีธรรมราช 80240,ภาคใต้,องค์การบริหารส่วนตำบล (อบต.),10494.00,3597.00,NaN,2.92,6.00,6000.00,0.57,01-06-22
อบต.เขาโร,8.058960686,99.57649685,ตำบล เขาโร อำเภอทุ่งสง นครศรีธรรมราช 80110,ภาคใต้,องค์การบริหารส่วนตำบล (อบต.),10654.00,3325.00,NaN,3.20,9.70,9700.00,0.91,01-06-22
ทม.สุไหงโก-ลก,6.029777844,101.9667801,ตำบล สุไหงโก-ลก อำเภอ สุไหงโก-ลก นราธิวาส 96120,ภาคใต้,เทศบาลเมือง (ทม.),40922.00,15345.00,NaN,2.67,32.95,32950.00,0.81,01-06-22
ทต.ปานะเระ,6.856065934,101.488716,เลขที่ 3 ถนนปะนาเระ-ปาลัส อำเภอปานาเระ อำเภอ ปะนาเระ ปัตตานี 94130,ภาคใต้,เทศบาลตำบล (ทต.),10534.00,2640.00,8000.00,3.99,5.00,5000.00,0.47,01-06-22
อบต.ท่ากำชำ,6.813951497,101.0591561,ตำบล ท่ากำชำ อำเภอ หนองจิก ปัตตานี 94170,ภาคใต้,องค์การบริหารส่วนตำบล (อบต.),7717.00,1678.00,NaN,4.60,0.75,750.00,0.10,01-06-22
อบต.บ้านกลาง,6.837218457,101.5010982,"อาคารสำนักงานองค์การบริหารส่วนตำบลบ้านกลาง, ตำบลบ้านกลาง อำเภอปะนาเระ จังหวัดปัตตานี, 94130",ภาคใต้,องค์การบริหารส่วนตำบล (อบต.),8115.00,1783.00,54040.80,4.55,1.48,1480.00,0.18,01-06-22
อบต.ตะโละกาโปร์,6.89031798,101.3855046,ตำบล ตะโละกาโปร์ อำเภอ ยะหริ่ง ปัตตานี 94150,ภาคใต้,องค์การบริหารส่วนตำบล (อบต.),8891.00,1954.00,NaN,4.55,2.00,2000.00,0.22,01-06-22
อบต.บาราเฮาะ,6.829648044,101.2668581,ตำบล บาราเฮาะ อำเภอเมืองปัตตานี ปัตตานี 94000,ภาคใต้,องค์การบริหารส่วนตำบล (อบต.),7732.00,1806.00,NaN,4.28,3.50,3500.00,0.45,01-06-22
อบต.เมาะมาวี,6.698269776,101.2929998,ตำบล เมาะมาวี อำเภอ ยะรัง ปัตตานี 94160,ภาคใต้,องค์การบริหารส่วนตำบล (อบต.),10855.00,2537.00,30982.10,4.28,4.80,4800.00,0.44,01-06-22
อบต.คุระ,9.197219778,98.41207704, ตำบล คุระ อำเภอ คุระบุรี พังงา 82150,ภาคใต้,องค์การบริหารส่วนตำบล (อบต.),11200.00,4534.00,NaN,2.47,NaN,NaN,NaN,01-06-22
อบต.บ่อแสน,8.473691441,98.6001911,"44/8 หมู่ 1, ถนนหลวงสาย 415, ตำบลบ่อแสน อำเภอทับปุด จังหวัดพังงา, 82180",ภาคใต้,องค์การบริหารส่วนตำบล (อบต.),7391.00,2180.00,7000.00,3.39,NaN,NaN,NaN,01-06-22
อบต.บางวัน,9.085535756,98.44289265,"195 หมู่ 5 บ้านคุรอด, ถนนเพชรเกษม, ตำบลบางวัน อำเภอคุระบุรี จังหวัดพังงา, 82150",ภาคใต้,องค์การบริหารส่วนตำบล (อบต.),7511.00,2992.00,NaN,2.51,6.90,6900.00,0.92,01-06-22
ทต.พนางตุง,7.777880297,100.1118626,ตำบล พนางตุง อำเภอ ควนขนุน พัทลุง 93150,ภาคใต้,เทศบาลตำบล (ทต.),10040.00,3740.00,60000.00,2.68,6.00,6000.00,0.60,01-06-22
ทต.โคกม่วง,7.405365949,100.0530236,ตำบล โคกม่วง อำเภอ เขาชัยสน พัทลุง 93130,ภาคใต้,เทศบาลตำบล (ทต.),10382.00,3625.00,59635.60,2.86,8.00,8000.00,0.77,01-06-22
อบต.ควนมะพร้าว,7.608029968,100.1143937,ตำบล ควนมะพร้าว อำเภอเมืองพัทลุง พัทลุง 93000,ภาคใต้,องค์การบริหารส่วนตำบล (อบต.),11612.00,4818.00,83437.30,2.41,NaN,NaN,NaN,01-06-22
อบต.นาปะขอ,7.450033491,100.1967505,ตำบล นาปะขอ อำเภอ บางแก้ว พัทลุง 93140,ภาคใต้,องค์การบริหารส่วนตำบล (อบต.),8238.00,2674.00,NaN,3.08,2.00,2000.00,0.24,01-06-22
ทม.กระทู้,7.911167682,98.34754777,"เลขที่ 12 หมู่ 2, ถนนวิชิตสงคราม, ตำบลกะทู้ อำเภอกะทู้ จังหวัดภูเก็ต, 83120 83120",ภาคใต้,เทศบาลเมือง (ทม.),30251.00,21635.00,NaN,1.40,46.00,46000.00,1.52,01-06-22
ทม.ป่าตอง,7.898276123,98.30489241,12/3 ซอย ราชปาทานุสรณ์ ตำบลป่าตอง อำเภอกะทู้ ภูเก็ต 83150,ภาคใต้,เทศบาลเมือง (ทม.),19928.00,4528.00,10000.00,4.40,30.00,30000.00,1.51,01-06-22
อบต.ตาเนาะปูเต๊ะ,6.347631316,101.2962225,ตำบล ตาเนาะปูเต๊ะ อำเภอ บันนังสตา ยะลา 95130,ภาคใต้,องค์การบริหารส่วนตำบล (อบต.),10361.00,2494.00,30000.00,4.15,2.30,2300.00,0.22,01-06-22
ทต.กายูบอเกาะ,6.476234914,101.4072163,ตำบล กายูบอเกาะ อำเภอ รามัน ยะลา 95140,ภาคใต้,เทศบาลตำบล (ทต.),5091.00,1867.00,NaN,2.73,4.00,4000.00,0.79,01-06-22
ทต.แม่หวาด,6.04563453,101.1675186,"อาคารสำนักงานองค์การบริหารส่วนตำบลแม่หวาด, ตำบลแม่หวาด อำเภอธารโต จังหวัดยะลา, 95150 ",ภาคใต้,เทศบาลตำบล (ทต.),1400.00,534.00,58000.00,2.62,NaN,NaN,NaN,01-06-22
อบต.ตลิ่งชัน,6.293274754,101.3016507,"อาคารองค์การบริหารส่วนตำบลตลิ่งชัน, ถนนหลวงสาย 4106, ตำบลตลิ่งชัน อำเภอบันนังสตา จังหวัดยะลา, 95130",ภาคใต้,องค์การบริหารส่วนตำบล (อบต.),14600.00,4937.00,NaN,2.96,2.49,2490.00,0.17,01-06-22
อบต.ตาชี,6.554993223,101.1063396,ตำบล ตาชี อำเภอ ยะหา ยะลา 95120,ภาคใต้,องค์การบริหารส่วนตำบล (อบต.),2118.00,647.00,72000.00,3.27,2.58,2580.00,1.22,01-06-22
ทต.ท่าช้าง,7.045412074,100.3927906,"259 หมู่ 6, ตำบลท่าช้าง อำเภอบางกล่ำ จังหวัดสงขลา, 90110 90110",ภาคใต้,เทศบาลตำบล (ทต.),22110.00,9709.00,NaN,2.28,15.00,15000.00,0.68,01-06-22
ทม.ม่วงงาม,7.353608889,100.4897608,ตำบล ม่วงงาม อำเภอ สิงหนคร สงขลา 90330,ภาคใต้,เทศบาลเมือง (ทม.),12059.00,4272.00,NaN,2.82,5.00,5000.00,0.41,01-06-22
อบต.เกาะยอ,7.156660446,100.5351475,"หมู่9, ตำบลเกาะยอ อำเภอเมือง จังหวัดสงขลา 90100",ภาคใต้,องค์การบริหารส่วนตำบล (อบต.),4500.00,1400.00,NaN,3.21,4.50,4500.00,1.00,01-06-22
อบต.สะกอม,6.937617067,100.7909811,ตำบล สะกอม อำเภอจะนะ สงขลา 90130,ภาคใต้,องค์การบริหารส่วนตำบล (อบต.),7938.00,2144.00,109200.00,3.70,NaN,NaN,NaN,01-06-22
ทต.ลำไพล,6.736881516,100.9316858,"282 หมู่1, ตำบลลำไพล อำเภอเทพา จังหวัดสงขลา, 90260",ภาคใต้,เทศบาลตำบล (ทต.),15877.00,4577.00,NaN,3.47,10.00,10000.00,0.63,01-06-22
ทต.สำนักขาม,6.527045424,100.4192478,"หมู่7, ถนนกาญจนวนิช, ตำบลสำนักขาม อำเภอสะเดา จังหวัดสงขลา, 90320 90320",ภาคใต้,เทศบาลตำบล (ทต.),13770.00,9242.00,10500.00,1.49,NaN,NaN,NaN,01-06-22
ทน.สงขลา,7.206704939,100.5964834,ซอย ราชดำเนิน ตำบลบ่อยาง อำเภอเมืองสงขลา สงขลา 90000,ภาคใต้,เทศบาลนคร (ทน.),63048.00,27526.00,200000.00,2.29,80.00,80000.00,1.27,01-06-22
ทม.คลองแห,7.067916455,100.4796553, อำเภอหาดใหญ่ สงขลา 90110,ภาคใต้,เทศบาลเมือง (ทม.),40240.00,20568.00,NaN,1.96,34.00,34000.00,0.84,01-06-22
อบต.ท่าบอน,7.806327349,100.3584793,ตำบล ท่าบอน อำเภอ ระโนด สงขลา 90140,ภาคใต้,องค์การบริหารส่วนตำบล (อบต.),8289.00,3147.00,50000.00,2.63,5.00,5000.00,0.60,01-06-22
ทม.สิงหนคร,7.238894329,100.5504712,ตำบล สทิงหม้อ อำเภอ สิงหนคร สงขลา 90280,ภาคใต้,เทศบาลเมือง (ทม.),39909.00,13189.00,130000.00,3.03,25.00,25000.00,0.63,01-06-22
อบต.สำนักแต้ว,6.637060797,100.4403863,หมู่ 2 5/2 ตำบล สำนักแต้ว อำเภอสะเดา สงขลา 90120,ภาคใต้,องค์การบริหารส่วนตำบล (อบต.),14241.00,4662.00,42000.00,3.05,NaN,NaN,NaN,01-06-22
ทต.กำแพง,6.884217714,99.78758153,ตำบล กำแพง อำเภอ ละงู สตูล 91110,ภาคใต้,เทศบาลตำบล (ทต.),5012.00,2782.00,150940.00,1.80,6.00,6000.00,1.20,01-06-22
ทต.ท่าทองใหม่,9.147623098,99.392463,"สำนักงานเทศบาลตำบลท่าทองใหม่, ตำบลท่าทองใหม่ อำเภอกาญจนดิษฐ์ จังหวัดสุราษฎร์ธานี, 84290",ภาคใต้,เทศบาลตำบล (ทต.),6874.00,2967.00,NaN,2.32,7.50,7500.00,1.09,01-06-22
ทน.สุราษฎร์ธานี,9.139571753,99.3304939,ตลาด 18 ถนนภักดีอนุสรณ์ ตำบลตลาด อำเภอเมืองสุราษฎร์ธานี สุราษฎร์ธานี 84000,ภาคใต้,เทศบาลนคร (ทน.),131952.00,75272.00,NaN,1.75,130.00,130000.00,0.99,01-06-22
อบต.ไทรทอง,8.387840516,99.05790015,ตำบล ไทรทอง อำเภอ ชัยบุรี สุราษฎร์ธานี 84350,ภาคใต้,องค์การบริหารส่วนตำบล (อบต.),7495.00,3040.00,NaN,2.47,NaN,NaN,NaN,01-06-22
ทต.ทุ่งหลวง,8.613870078,99.32582959,ตำบล เวียงสระ อำเภอเวียงสระ สุราษฎร์ธานี 84190,ภาคใต้,เทศบาลตำบล (ทต.),11297.00,4049.00,NaN,2.79,3.00,3000.00,0.27,01-06-22
ทม.ท่าข้าม,9.106014634,99.23271714,9 7 ตำบล ท่าข้าม อำเภอพุนพิน สุราษฎร์ธานี 84130,ภาคใต้,เทศบาลเมือง (ทม.),18865.00,9021.00,103962.00,2.09,NaN,NaN,NaN,01-06-22
ทม.นาสาร,8.799503403,99.36338732,30 ถนนเทศบาล 2 ตำบล นาสาร อำเภอบ้านนาสาร สุราษฎร์ธานี 84120,ภาคใต้,เทศบาลเมือง (ทม.),19181.00,8109.00,70801.40,2.37,NaN,NaN,NaN,01-06-22
อบต.บ้านทำเนียบ,8.953183162,98.98639345,ตำบล บ้านทำเนียบ อำเภอ คีรีรัฐนิคม สุราษฎร์ธานี 84180,ภาคใต้,องค์การบริหารส่วนตำบล (อบต.),10812.00,4580.00,NaN,2.36,11.35,11350.00,1.05,01-06-22
อบต.ท่าอุแท,9.1466063,99.64446323,111 หมู่ 4 ถ. สุราษฎร์ - นครศรีฯ ต ตำบล ท่าอุแท อำเภอกาญจนดิษฐ์ จ.สุราษฏร์ธานี 84160,ภาคใต้,องค์การบริหารส่วนตำบล (อบต.),10732.00,4707.00,50000.00,2.28,10.00,10000.00,0.93,01-06-22
อบต.บ้านนา,8.844571411,99.30432453,หมู่ 8 อินเตอร์เน็ต 24/1 ตำบล บ้านนา อำเภอบ้านนาเดิม สุราษฎร์ธานี 84240,ภาคใต้,องค์การบริหารส่วนตำบล (อบต.),7559.00,2722.00,NaN,2.78,3.50,3500.00,0.46,01-06-22
อบต.สินเจริญ,8.455152686,99.22767672,ตำบล สินเจริญ อำเภอ พระแสง สุราษฎร์ธานี 84210,ภาคใต้,องค์การบริหารส่วนตำบล (อบต.),9525.00,3511.00,NaN,2.71,5.00,5000.00,0.52,01-06-22
อบต.อ่าวตง,7.855920438,99.38469291,"องค์การบริหารส่วนตำบลอ่าวตง, ตำบลอ่าวตง อำเภอวังวิเศษ จังหวัดตรัง, 92220",ภาคใต้,องค์การบริหารส่วนตำบล (อบต.),10997.00,3644.00,NaN,3.02,1.50,1500.00,0.14,01-06-22
ทต.บุดี,6.507340569,101.3192005,"อาคารสำนักงานเทศบาลตำบลบุดี, ถนนหลวงสาย 4063, ตำบลบุดี อำเภอเมือง จังหวัดยะลา, 95000",ภาคใต้,เทศบาลตำบล (ทต.),11444.00,2872.00,22500.00,3.98,NaN,NaN,NaN,01-06-22
ทม.เบตง,5.772921485,101.0648628,335 ถ. สุขยางค์ ตำบล เบตง อำเภอเบตง ยะลา 95110,ภาคใต้,เทศบาลเมือง (ทม.),26421.00,11310.00,80000.00,2.34,18.98,18980.00,0.72,01-06-22
อบต.กอตงตือร๊ะ,6.495762183,101.3914579,ตำบล กาตอตือร๊ะ อำเภอ รามัน ยะลา 95140,ภาคใต้,องค์การบริหารส่วนตำบล (อบต.),5814.00,1349.00,105000.00,4.31,0.52,520.00,0.09,01-06-22
อบต.กาตอง,6.503262612,101.0819381,20 ตำบล กาตอง อำเภอ ยะหา ยะลา 95120,ภาคใต้,องค์การบริหารส่วนตำบล (อบต.),9145.00,1926.00,12000.00,4.75,0.91,910.00,0.10,01-06-22
อบต.ตาชี,6.555010558,101.1063376,ตำบล ตาชี อำเภอ ยะหา ยะลา 95120,ภาคใต้,องค์การบริหารส่วนตำบล (อบต.),1816.00,653.00,72000.00,2.78,1.52,1520.00,0.84,01-06-22
อบต.ธารโต,6.157468864,101.1892353,ถนนหน้าอำเภอ ตำบล ธารโต อำเภอ ธารโต ยะลา 95150,ภาคใต้,องค์การบริหารส่วนตำบล (อบต.),5182.00,1965.00,42000.00,2.64,0.80,800.00,0.15,01-06-22
อบต.เนินงาม,6.496340662,101.3591962,ตำบล เนินงาม อำเภอ รามัน ยะลา 95140,ภาคใต้,องค์การบริหารส่วนตำบล (อบต.),7014.00,1693.00,NaN,4.14,3.00,3000.00,0.43,01-06-22
อบต.บ้านแหร,6.113407569,101.1851673,องค์การบริหารส่วน ตำบล บ้านแหร อำเภอ ธารโต ยะลา 95150,ภาคใต้,องค์การบริหารส่วนตำบล (อบต.),7932.00,2508.00,NaN,3.16,1.26,1260.00,0.16,01-06-22
อบต.แม่หวาด,6.045642113,101.1674397,"อาคารสำนักงานองค์การบริหารส่วนตำบลแม่หวาด, ตำบลแม่หวาด อำเภอธารโต จังหวัดยะลา, 95150",ภาคใต้,องค์การบริหารส่วนตำบล (อบต.),7863.00,3375.00,8200.00,2.33,0.05,52.00,0.01,01-06-22
อบต.ลำพะยา,6.580411812,101.1660131,ตำบล ลำพะยา อำเภอเมืองยะลา ยะลา 95160,ภาคใต้,องค์การบริหารส่วนตำบล (อบต.),5042.00,1476.00,234000.00,3.42,NaN,NaN,NaN,01-06-22
อบต.อาซ่อง,6.51588482,101.468943,หมู่ 2 ตำบล อาซ่อง อำเภอ รามัน ยะลา 95140,ภาคใต้,องค์การบริหารส่วนตำบล (อบต.),5727.00,1324.00,30000.00,4.33,1.00,1000.00,0.17,01-06-22
อบต.ลำเลียง,10.34308667,98.77659795,ตำบล ลำเลียง อำเภอ กระบุรี ระนอง 85110,ภาคใต้,องค์การบริหารส่วนตำบล (อบต.),9424.00,4692.00,7921.22,2.01,0.02,23.00,0.00,01-06-22
ทม.นราธิวาส,6.42682065,101.8224995,410 ถ. พิชิตบำรุง ตำบล บางนาค อำเภอเมืองนราธิวาส นราธิวาส 96000,ภาคใต้,เทศบาลเมือง (ทม.),41812.00,15479.00,NaN,2.70,40.00,40000.00,0.96,01-06-22
อบต.ปากน้ำ,6.84758127,99.76087001,733 ปากน้ำ อำเภอ ละงู สตูล,ภาคใต้,องค์การบริหารส่วนตำบล (อบต.),11119.00,3262.00,NaN,3.41,6.00,6000.00,0.54,01-06-22
อบต.ไสไทย,8.051307512,98.90736263,339 หมู่7 ตำบลไสไทย อำเภอเมือง อำเภอเมือง จังหวัดกระบี่ 81000 81000,ภาคใต้,องค์การบริหารส่วนตำบล (อบต.),14878.00,8384.00,60000.00,1.77,9.00,9000.00,0.60,01-06-22
ทต.ทะเลน้อย,7.781748874,100.113909,ตำบล ทะเลน้อย อำเภอ ควนขนุน พัทลุง 93150,ภาคใต้,เทศบาลตำบล (ทต.),6544.00,2217.00,72000.00,2.95,2.50,2500.00,0.38,01-06-22
อบต.เทพกระษัตรี,8.022482012,98.33520021,158 ถ. เทพกระษัตรี ตำบล เทพกระษัตรี อำเภอถลาง ภูเก็ต 83110,ภาคใต้,องค์การบริหารส่วนตำบล (อบต.),15394.00,10159.00,NaN,1.52,14.00,14000.00,0.91,01-06-22
ทต.ชุมโค,10.77663744,99.37202842,ตำบล ชุมโค อำเภอปะทิว ชุมพร 86160,ภาคใต้,เทศบาลตำบล (ทต.),10390.00,5374.00,NaN,1.93,1.00,1000.00,0.10,01-06-22
อบต.รัตภูมิ,7.20495515,100.3484455,ตำบล รัตภูมิ อำเภอ ควนเนียง สงขลา 90220,ภาคใต้,องค์การบริหารส่วนตำบล (อบต.),10650.00,3604.00,1200.00,2.96,7.68,7680.00,0.72,01-06-22
อบต.ละแม,9.764206935,99.0856898,ตำบล ละแม อำเภอละแม ชุมพร 86170,ภาคใต้,องค์การบริหารส่วนตำบล (อบต.),11577.00,5402.00,NaN,2.14,NaN,NaN,NaN,01-06-22
เขตการปกครองพิเศษ สำนักงานเขตมีนบุรี,13.81354745,100.7311991,333 ถนน สีหบุรานุกิจ มีนบุรี กรุงเทพมหานคร 10510,ภาคกลาง,เขตการปกครองพิเศษ,142197.00,61051.00,NaN,2.33,183.00,183000.00,1.29,01-06-22
ทม.เขาสามยอด,14.82361381,100.6567843,ตำบล เขาสามยอด อำเภอเมืองลพบุรี ลพบุรี 15000,ภาคกลาง,เทศบาลเมือง (ทม.),29343.00,12295.00,38000.00,2.39,50.00,50000.00,1.70,01-06-22
ทม.แพรกษา,13.58068993,100.6517976,"545 หมู่ 6, ตำบลแพรกษา อำเภอเมือง จังหวัดสมุทรปราการ, 10280 10280",ภาคกลาง,เทศบาลเมือง (ทม.),36886.00,15644.00,149310.00,2.36,37.85,37848.00,1.03,01-06-22
ทม.โพธาราม,13.69174596,99.85311697,ถนนหน้าเทศบาล ตำบล โพธาราม อำเภอโพธาราม ราชบุรี 70120,ภาคกลาง,เทศบาลเมือง (ทม.),8696.00,3695.00,117707.87,2.35,NaN,NaN,NaN,01-06-22
ทม.ไทรม้า,13.88465118,100.4662159,"22/2 หมู่ 2 ซอยไทรม้า 3, ถนนอนุสรณ์ประเสริฐ, ตำบลไทรม้า อำเภอเมือง จังหวัดนนทบุรี, 11000 11000",ภาคกลาง,เทศบาลเมือง (ทม.),23828.00,8802.00,NaN,2.71,42.00,42000.00,1.76,01-06-22
ทม.กาญจนบุรี,14.01963119,99.53131149,สำนักงานเทศบาลเมืองกาญจนบุรี,ภาคกลาง,เทศบาลเมือง (ทม.),NaN,26937.00,NaN,NaN,39.17,39170.00,NaN,01-06-22
ทม.ท่าเรือพระแท่น,13.94975143,99.75296598,"อาคารสำนักงานเทศบาลเมืองท่าเรือพระแท่น, ถนนแสงชูโต, ตำบลท่าเรือพระแท่น อำเภอท่ามะกา จังหวัดกาญจนบุรี 71130",ภาคกลาง,เทศบาลเมือง (ทม.),6179.00,2118.00,92000.00,2.92,5.00,5000.00,0.81,01-06-22
ทม.ท่าโขลง,14.08949853,100.6234527,1 หมู่ 10 ถนนสีขาว ตำบลคลองหนึ่ง อำเภอคลองหลวง ปทุมธานี 12110,ภาคกลาง,เทศบาลเมือง (ทม.),76971.00,21876.00,NaN,3.52,150.00,150000.00,1.95,01-06-22
ทม.ท่าผา,13.84391144,99.86805309,ตำบล ท่าผา อำเภอบ้านโป่ง ราชบุรี 70110,ภาคกลาง,เทศบาลเมือง (ทม.),20154.00,8193.00,70.21,2.46,20.60,20600.00,1.02,01-06-22
ทม.นครปฐม ,13.826365,100.078562,888 ถนนทหารบก ตำบลบ่อพลับ อำเภอเมืองนครปฐม นครปฐม 73000,ภาคกลาง,เทศบาลเมือง (ทม.),14056.00,6344.00,NaN,2.22,15.00,15000.00,1.07,01-06-22
ทม.บางกรวย,13.80421216,100.4755951,99 หมู่ 3 ถนน บางกรวย-จงถนอม ตำบล วัดชลอ อำเภอบางกรวย นนทบุรี 11130,ภาคกลาง,เทศบาลเมือง (ทม.),42565.00,16627.00,NaN,2.56,50.00,50000.00,1.17,01-06-22
ทม.บางคูวัด ,13.95762152,100.4902151,999 หมู่ที่ 1 ตำบล บางคูวัด อำเภอเมืองปทุมธานี ปทุมธานี 12000,ภาคกลาง,เทศบาลเมือง (ทม.),29190.00,19237.00,175733.45,1.52,35.00,35000.00,1.20,01-06-22
ทม.บางศรีเมือง,13.84431922,100.4828405,777 ถนน นนทบุรี บางศรีเมือง อำเภอเมืองนนทบุรี นนทบุรี 11000,ภาคกลาง,เทศบาลเมือง (ทม.),33026.00,13228.00,NaN,2.50,NaN,NaN,NaN,01-06-22
ทม.บ้านกรด,14.31200972,100.6003595,ตำบล บ้านกรด อำเภอบางปะอิน จังหวัดพระนครศรีอยุธยา 13160,ภาคกลาง,เทศบาลเมือง (ทม.),12716.00,9064.00,NaN,1.40,12.00,12000.00,0.94,01-06-22
ทม.ปากน้ำสมุทรปราการ,13.58969857,100.6386738,ซอย ทรัพย์พัฒนา ตำบล แพรกษา อำเภอเมืองสมุทรปราการ สมุทรปราการ 10280,ภาคกลาง,เทศบาลเมือง (ทม.),37935.00,15418.00,150000.00,2.46,40.18,40180.00,1.06,01-06-22
ทม.ปู่เจ้าสมิงพราย,13.6439621,100.5780307,222 หมู่ 8 ถ. ปู่เจ้าสมิงพราย ตำบลสำโรงใต้ อำเภอพระประแดง สมุทรปราการ 10130,ภาคกลาง,เทศบาลเมือง (ทม.),71322.00,35682.00,NaN,2.00,110.98,110980.00,1.56,01-06-22
ทม.ราชบุรี,13.53563537,99.81329259,319 ถนน ศรีสุริยวงศ์ ตำบล หน้าเมือง อำเภอเมืองราชบุรี ราชบุรี 70000,ภาคกลาง,เทศบาลเมือง (ทม.),34653.00,16385.00,20000.00,2.11,45.85,45848.00,1.32,01-06-22
ทม.ลัดหลวง,13.62990256,100.5330216,หมู่ที่ 1 79 ถ. สุขสวัสดิ์ อำเภอพระประแดง สมุทรปราการ 10130,ภาคกลาง,เทศบาลเมือง (ทม.),70378.00,37440.00,120000.00,1.88,137.00,137000.00,1.95,01-06-22
ทม.สนั่นรักษ์,14.07104168,100.8686233,ตำบล บึงน้ำรักษ์ อำเภอธัญบุรี ปทุมธานี 12110,ภาคกลาง,เทศบาลเมือง (ทม.),31907.00,17020.00,NaN,1.87,30.00,30000.00,0.94,01-06-22
ทม.สระบุรี,14.52839618,100.9114486,511 ซอย พิชัยณรงค์สงคราม 27 ตำบล ปากเพรียว อำเภอเมืองสระบุรี สระบุรี 18000,ภาคกลาง,เทศบาลเมือง (ทม.),59263.00,28569.00,NaN,2.07,60.00,60000.00,1.01,01-06-22
ทม.สองพี่น้อง,14.23044649,100.0389232,55 ซอย ราษฎร์บำรุง 1 ตำบล สองพี่น้อง อำเภอสองพี่น้อง สุพรรณบุรี 72110,ภาคกลาง,เทศบาลเมือง (ทม.),12330.00,5132.00,NaN,2.40,14.00,14000.00,1.14,01-06-22
ทม.สิงห์บุรี,14.89105247,100.4029949,ตำบล บางพุทรา อำเภอเมืองสิงห์บุรี สิงห์บุรี 16000,ภาคกลาง,เทศบาลเมือง (ทม.),17069.00,9210.00,10000.00,1.85,25.00,25000.00,1.46,01-06-22
ทม.อโยธยา,14.36403197,100.5887544,ตำบล ไผ่ลิง อำเภอ พระนครศรีอยุธยา จังหวัดพระนครศรีอยุธยา 13000,ภาคกลาง,เทศบาลเมือง (ทม.),10097.00,10272.00,108000.00,0.98,36.00,36000.00,3.57,01-06-22
ทต.เจ้าเจ็ด,14.31174307,100.3751,99 ตำบล เจ้าเจ็ด อำเภอเสนา จังหวัดพระนครศรีอยุธยา 13110,ภาคกลาง,เทศบาลตำบล (ทต.),10728.00,3178.00,NaN,3.38,10.00,10000.00,0.93,01-06-22
ทต.กรับใหญ่,13.93654897,99.86982816,ตำบล กรับใหญ่ อำเภอบ้านโป่ง ราชบุรี 70190,ภาคกลาง,เทศบาลตำบล (ทต.),12943.00,3846.00,80000.00,3.37,8.00,8000.00,0.62,01-06-22
ทต.ท่าเรือ,14.55949067,100.7226233,"489, ถนนเลียบแม่น้ำป่าสัก, ตำบลท่าเรือ อำเภอท่าเรือ จังหวัดพระนครศรีอยุธยา, 13130",ภาคกลาง,เทศบาลตำบล (ทต.),6661.00,3158.00,NaN,2.11,6.33,6330.00,0.95,01-06-22
ทต.ท่ามะกา,13.91385271,99.76583573,3/2 ถ. แสงชูโต ตำบล ท่ามะกา อำเภอท่ามะกา กาญจนบุรี 71120,ภาคกลาง,เทศบาลตำบล (ทต.),8601.00,4690.00,NaN,1.83,8.00,8000.00,0.93,01-06-22
ทต.นายาง,12.83389752,99.93446983,หมู่ ที่ 2 444 ถ. เพชรเกษม ตำบล เขาใหญ่ อำเภอชะอำ เพชรบุรี 76120,ภาคกลาง,เทศบาลตำบล (ทต.),18876.00,7101.00,113726.52,2.66,8.27,8266.00,0.44,01-06-22
ทต.เกษตรพัฒนา,13.65539421,100.162631,ตำบล เกษตรพัฒนา อำเภอบ้านแพ้ว สมุทรสาคร 74120,ภาคกลาง,เทศบาลตำบล (ทต.),5090.00,1571.00,NaN,3.24,4.00,4000.00,0.79,01-06-22
ทต.เขาพระงาม,14.89797138,100.6105832,103 หมู่ 3 ตำบล เขาพระงาม อำเภอ เมืองลพบุรี ลพบุรี 15160,ภาคกลาง,เทศบาลตำบล (ทต.),27075.00,11743.00,NaN,2.31,8.00,8000.00,0.30,01-06-22
ทต.เชียงรากน้อย ,14.16773812,100.5955697,555 ถ. กาญจนาภิเษก ตำบล เชียงรากน้อย อำเภอบางปะอิน จังหวัดพระนครศรีอยุธยา 13180,ภาคกลาง,เทศบาลตำบล (ทต.),10140.00,4350.00,40000.00,2.33,15.00,15000.00,1.48,01-06-22
ทต.เทพารักษ์,13.60859467,100.6517103,999 ตำบลเทพารักษ์ อำเภอเมืองสมุทรปราการ สมุทรปราการ 10270,ภาคกลาง,เทศบาลตำบล (ทต.),22250.00,11440.00,NaN,1.94,50.00,50000.00,2.25,01-06-22
ทต.เมืองเก่า,14.54767609,100.822587,หมู่ที่ 3 33/3 ตำบล เมืองเก่า อำเภอ เสาไห้ สระบุรี 18160,ภาคกลาง,เทศบาลตำบล (ทต.),3424.00,1113.00,NaN,3.08,1.14,1140.00,0.33,01-06-22
ทต.เสาไห้,14.55012215,100.8443689,ตำบล เสาไห้ อำเภอ เสาไห้ สระบุรี 18160,ภาคกลาง,เทศบาลตำบล (ทต.),3109.00,1440.00,NaN,2.16,5.00,5000.00,1.61,01-06-22
ทต.แพรกศรีราชา,15.04976011,100.157731,522 ถนนท่าดงคอน ตำบล แพรกศรีราชา อำเภอ สรรคบุรี ชัยนาท 17140,ภาคกลาง,เทศบาลตำบล (ทต.),2497.00,1362.00,NaN,1.83,NaN,NaN,NaN,01-06-22
ทต.แพรกษา,13.57069248,100.6536557,999 999 หมู่ที่ 6 ซอย รักษ์พันธ์ดี ตำบล แพรกษา อำเภอเมืองสมุทรปราการ สมุทรปราการ 10280,ภาคกลาง,เทศบาลตำบล (ทต.),26612.00,15645.00,100800.00,1.70,67.66,67660.00,2.54,01-06-22
ทต.แหลมฟ้าผ่า,13.5693881,100.5625015,999 หมู่ 5 ถ. สุขสวัสดิ์ ตำบล แหลมฟ้าผ่า อำเภอพระสมุทรเจดีย์ สมุทรปราการ 10290,ภาคกลาง,เทศบาลตำบล (ทต.),21412.00,9148.00,250000.00,2.34,24.00,24000.00,1.12,01-06-22
ทต.โพตลาดแก้ว,14.80537786,100.5592289,ตำบล โพตลาดแก้ว อำเภอท่าวุ้ง ลพบุรี 15150,ภาคกลาง,เทศบาลตำบล (ทต.),4876.00,1778.00,94522.94,2.74,NaN,NaN,NaN,01-06-22
ทต.โพนางดำออก,15.11953654,100.2762236,59/5 หมู่ที่ 6 ตำบลโพนางดำออก โพนางดำออก สรรพยา ชัยนาท 17150,ภาคกลาง,เทศบาลตำบล (ทต.),5231.00,2023.00,60000.00,2.59,1.60,1600.00,0.31,01-06-22
ทต.โพสะ,14.55995494,100.4502479,"หมู่ 6, ตำบลโพสะ อำเภอเมือง ตำบล โพสะ อำเภอเมืองอ่างทอง อ่างทอง 14000",ภาคกลาง,เทศบาลตำบล (ทต.),3496.00,1534.00,108000.00,2.28,3.57,3570.00,1.02,01-06-22
ทต.โพสังโฆ,14.8175583,100.3591767,ตำบล โพสังโฆ อำเภอ ค่ายบางระจัน สิงห์บุรี 16150,ภาคกลาง,เทศบาลตำบล (ทต.),2096.00,832.00,NaN,2.52,NaN,NaN,NaN,01-06-22
ทต.กุดนกเปล้า,14.49976567,100.9764449,"หมู่3, ตำบลกุดนกเปล้า อำเภอเมืองสระบุรี จังหวัดสระบุรี, 18000 18000",ภาคกลาง,เทศบาลตำบล (ทต.),5962.00,2591.00,NaN,2.30,NaN,NaN,NaN,01-06-22
ทต.ขุนพัดเพ็ง,14.28203032,99.87564434,"999 หมู่ 5 บ้านโป่ง, ตำบลสระยายโสม อำเภออู่ทอง จังหวัดสุพรรณบุรี, 72220",ภาคกลาง,เทศบาลตำบล (ทต.),5422.00,1846.00,40000.00,2.94,5.62,5620.00,1.04,01-06-22
ทต.คอกกระบือ,13.60045936,100.3352326,40 หมู่ที่ 3 เอกชัย-บางบอน คอกกระบือ ตำบล คอกกระบือ อำเภอเมืองสมุทรสาคร สมุทรสาคร 74000,ภาคกลาง,เทศบาลตำบล (ทต.),9536.00,6027.00,4000.00,1.58,28.00,28000.00,2.94,01-06-22
ทต.คุ้งสำเภา,15.31028199,100.0820187,ตำบล คุ้งสำเภา อำเภอมโนรมย์ ชัยนาท 17110,ภาคกลาง,เทศบาลตำบล (ทต.),1788.00,990.00,108000.00,1.81,0.45,450.00,0.25,01-06-22
ทต.จรเข้สามพัน,14.32581279,99.86238809,"อาคารสำนักงานเทศบาลตำบลจรเข้สามพัน, ตำบลจรเข้สามพัน อำเภออู่ทอง จังหวัดสุพรรณบุรี, 72160 71170",ภาคกลาง,เทศบาลตำบล (ทต.),13334.00,4678.00,NaN,2.85,17.00,17000.00,1.27,01-06-22
ทต.ดงคอน,15.0144769,100.1436766,ต.ดงคอน อำเภอ สรรคบุรี ชัยนาท 17140,ภาคกลาง,เทศบาลตำบล (ทต.),11977.00,4039.00,NaN,2.97,1.01,1010.00,0.08,01-06-22
ทต.ดอนเจดีย์,14.62897433,100.0149966,888 หมู่ 5 ถนน เทศบาล ซอย4 ตำบล ดอนเจดีย์ อำเภอ ดอนเจดีย์ สุพรรณบุรี 72170,ภาคกลาง,เทศบาลตำบล (ทต.),3088.00,1339.00,100000.00,2.31,5.60,5600.00,1.81,01-06-22
ทต.ดอนทราย,13.64246682,99.86127866,ตำบลดอนทราย อำเภอโพธาราม ราชบุรี 70120,ภาคกลาง,เทศบาลตำบล (ทต.),9644.00,3347.00,40000.00,2.88,3.00,3000.00,0.31,01-06-22
ทต.ดอนยายหอม,13.72480607,100.0817095,"999 หมู่ 1, ตำบลดอนยายหอม อำเภอเมืองนครปฐม จังหวัดนครปฐม, 73000 73000",ภาคกลาง,เทศบาลตำบล (ทต.),6539.00,2006.00,NaN,3.26,6.50,6500.00,0.99,01-06-22
ทต.ด่านสำโรง,13.64085163,100.6086977,545 ซอย ด่านสำโรง 47 ตำบล สำโรงเหนือ อำเภอเมืองสมุทรปราการ สมุทรปราการ 10270,ภาคกลาง,เทศบาลตำบล (ทต.),54677.00,25511.00,28712.00,2.14,87.00,87000.00,1.59,01-06-22
ทต.ดำเนินสะดวก,13.51761107,99.95449639,ตำบล ดำเนินสะดวก อำเภอดำเนินสะดวก ราชบุรี 70130,ภาคกลาง,เทศบาลตำบล (ทต.),7217.00,3256.00,NaN,2.22,7.90,7900.00,1.09,01-06-22
ทต.ตลาดเกรียบ,14.27799244,100.5728183,54 หมู่ 5 ตลาดเกรียบ อำเภอบางปะอิน จังหวัดพระนครศรีอยุธยา 13160,ภาคกลาง,เทศบาลตำบล (ทต.),2805.00,805.00,84955.29,3.48,1.50,1500.00,0.53,01-06-22
ทต.ตะกุด,14.54569962,100.9344664,หมู่ที่6 เลขที่ 99/19 ถนนเทศบาล 5 ตำบล ตะกุด อำเภอเมืองสระบุรี สระบุรี 18000,ภาคกลาง,เทศบาลตำบล (ทต.),4770.00,2227.00,105000.00,2.14,7.76,7760.00,1.63,01-06-22
ทต.ถอนสมอ,14.76237078,100.3903158,403/12 ซอย เทศบาล 12 ตำบล ถอนสมอ อำเภอ ท่าช้าง สิงห์บุรี 16140,ภาคกลาง,เทศบาลตำบล (ทต.),8756.00,3404.00,58446.00,2.57,8.90,8900.00,1.02,01-06-22
ทต.ทับยา,14.96153258,100.3460913,"12 หมู่5, ตำบลทับยา อำเภออินทร์บุรี จังหวัดสิงห์บุรี, 16110 16110",ภาคกลาง,เทศบาลตำบล (ทต.),5946.00,2130.00,101526.00,2.79,5.07,5073.80,0.85,01-06-22
ทต.ทับสะแก,11.4958273,99.62077265,111 หมู่ 11 ตำบลทับสะแก อำเภอทับสะแก ประจวบคีรีขันธ์ 77130,ภาคกลาง,เทศบาลตำบล (ทต.),6556.00,3467.00,NaN,1.89,7.00,7000.00,1.07,01-06-22
ทต.ท่าเสด็จ,14.4929599,100.0153411,333 หมูที่6 ตำบล สระเเก้ว อำเภอเมืองสุพรรณบุรี สุพรรณบุรี 72230,ภาคกลาง,เทศบาลตำบล (ทต.),14206.00,4285.00,NaN,3.32,5.00,5000.00,0.35,01-06-22
ทต.ท่าโขลง,14.91398037,100.4660335,"อาคารสำนักงานเทศบาลตำบลท่าโขลง, ตำบลเขาสมอคอน อำเภอท่าวุ้ง จังหวัดลพบุรี, 15180",ภาคกลาง,เทศบาลตำบล (ทต.),2275.00,991.00,101665.00,2.30,3.50,3500.00,1.54,01-06-22
ทต.ทางพระ,14.67607398,100.3482381,"หมู่1, ตำบลทางพระ อำเภอโพธิ์ทอง จังหวัดอ่างทอง, 14120 14120",ภาคกลาง,เทศบาลตำบล (ทต.),2661.00,893.00,NaN,2.98,NaN,NaN,NaN,01-06-22
ทต.ท้าวอู่ทอง,14.36046515,99.8851577,"ตำบลอู่ทอง อำเภออู่ทองสุพรรณบุรี จังหวัดสุพรรณบุรี, 72160",ภาคกลาง,เทศบาลตำบล (ทต.),15851.00,5659.00,NaN,2.80,16.00,16000.00,1.01,01-06-22
ทต.ท่าวุ้ง ,14.81119047,100.5117294,หมู่ที่ 2 88 ตำบล ท่าวุ้ง อำเภอท่าวุ้ง ลพบุรี 15150,ภาคกลาง,เทศบาลตำบล (ทต.),2206.00,904.00,NaN,2.44,1.70,1700.00,0.77,01-06-22
ทต.ธรรมามูล,15.25248137,100.0963337,"เลข ที่ 261 หมู่ ที่ 2 ตำบล ธร ร ร มา มูล 17000, อำเภอเมืองชัยนาท ชัยนาท 17000",ภาคกลาง,เทศบาลตำบล (ทต.),7545.00,2707.00,60000.00,2.79,2.00,2000.00,0.27,01-06-22
ทต.นางบวช,14.81405843,100.1163139,999 หมู่ที่ 4 ตำบล นางบวช อำเภอเดิมบางนางบวช สุพรรณบุรี 72120,ภาคกลาง,เทศบาลตำบล (ทต.),4351.00,1627.00,NaN,2.67,1.70,1700.00,0.39,01-06-22
ทต.นางลือ,15.11507588,100.070399,ตำบล นางลือ อำเภอเมืองชัยนาท ชัยนาท 17000,ภาคกลาง,เทศบาลตำบล (ทต.),7583.00,2567.00,81908.87,2.95,1.42,1417.00,0.19,01-06-22
ทต.นายาว,14.75653946,100.7557959,ตำบล นายาว อำเภอพระพุทธบาท สระบุรี 18120,ภาคกลาง,เทศบาลตำบล (ทต.),4331.00,1742.00,NaN,2.49,4.00,4000.00,0.92,01-06-22
ทต.บางเตย,14.06562541,100.522696,ตำบลบางเตย อำเภอสามโคก ปทุมธานี 12160,ภาคกลาง,เทศบาลตำบล (ทต.),10978.00,4507.00,263775.00,2.44,17.00,17000.00,1.55,01-06-22
ทต.บางเสาธง,13.58107884,100.7956771,213/1 หมู่1 ถนนเทพารักษ์ ตำบลบางเสาธง อำเภอบางเสาธง สมุทรปราการ 10570,ภาคกลาง,เทศบาลตำบล (ทต.),21661.00,17117.00,NaN,1.27,68.37,68370.00,3.16,01-06-22
ทต.บางแพ,13.69827153,99.90697724,ตำบล วังเย็น อำเภอบางแพ ราชบุรี 70160,ภาคกลาง,เทศบาลตำบล (ทต.),16143.00,6292.00,NaN,2.57,10.00,10000.00,0.62,01-06-22
ทต.บางจัก,14.52107295,100.3680576,72 1 ตำบล บางจัก อำเภอ วิเศษชัยชาญ อ่างทอง 14110,ภาคกลาง,เทศบาลตำบล (ทต.),6521.00,2700.00,100000.00,2.42,2.50,2500.00,0.38,01-06-22
ทต.บางนกแขวก,13.50720114,99.91754757,28 ถนน โยธาธิการ สมุุทรสาคร หมู่ 2 3 4 ตำบล กระดังงา อำเภอ บางคนที สมุทรสงคราม 75120,ภาคกลาง,เทศบาลตำบล (ทต.),1740.00,853.00,32000.00,2.04,1.60,1600.00,0.92,01-06-22
ทต.บางน้ำเชี่ยว,14.77574025,100.4506179,350 AH1 ตำบล บางน้ำเชี่ยว อำเภอพรหมบุรี สิงห์บุรี 16120,ภาคกลาง,เทศบาลตำบล (ทต.),3394.00,1375.00,NaN,2.47,1.74,1740.00,0.51,01-06-22
ทต.บางพลี ,13.60565202,100.706529,สุขาภิบาล 4 ตำบล บางพลีใหญ่ อำเภอบางพลี สมุทรปราการ 10540,ภาคกลาง,เทศบาลตำบล (ทต.),11827.00,2204.00,NaN,5.37,25.00,25000.00,2.11,01-06-22
ทต.บางยี่รงค์,13.4876162,99.92333071,"28 หมู่ 9, ตำบลบางยี่รงค์ อำเภอบางคนที จังหวัดสมุทรสงคราม, 75120 75120",ภาคกลาง,เทศบาลตำบล (ทต.),1752.00,739.00,NaN,2.37,1.48,1482.00,0.85,01-06-22
ทต.บางหญ้าแพรก ,13.51897683,100.25954,ตำบล บางหญ้าแพรก อำเภอเมืองสมุทรสาคร สมุทรสาคร 74000,ภาคกลาง,เทศบาลตำบล (ทต.),24409.00,9490.00,25000.00,2.57,70.00,70000.00,2.87,01-06-22
ทต.บางหลวง,14.00756427,100.5398075,423 70 ซอย บ้านกลาง 3/4 ตำบล บางหลวง อำเภอเมืองปทุมธานี ปทุมธานี 12000,ภาคกลาง,เทศบาลตำบล (ทต.),2108.00,770.00,NaN,2.74,2.30,2300.00,1.09,01-06-22
ทต.บ้านเชี่ยน,14.95618073,99.9938492,ตำบล บ้านเชี่ยน อำเภอ หันคา ชัยนาท 17130,ภาคกลาง,เทศบาลตำบล (ทต.),8748.00,2987.00,NaN,2.93,NaN,NaN,NaN,01-06-22
ทต.บ้านแพ้ว,13.58679014,100.1036236,99/9 หมู่ที่ 1 ถนนคันสหกรณ์ ตำบล หลักสาม อำเภอบ้านแพ้ว สมุทรสาคร 74120,ภาคกลาง,เทศบาลตำบล (ทต.),3261.00,1050.00,300.00,3.11,NaN,NaN,NaN,01-06-22
ทต.บ้านโพธิ์,13.59915083,101.0784159,127/17 ถนน บ้านหมู่ใหญ่ ตำบล แสนภูดาษ อำเภอบ้านโพธิ์ ฉะเชิงเทรา 24140,ภาคกลาง,เทศบาลตำบล (ทต.),8706.00,2710.00,NaN,3.21,3.00,3000.00,0.34,01-06-22
ทต.บ้านใหม่ ,13.96288495,100.542138,"อาคาร สำนักงาน เทศบาล ตำบล บ้าน ใหม่ อำเภอ เมือง, ตำบล บ้านใหม่ อำเภอเมืองปทุมธานี ปทุมธานี 12000",ภาคกลาง,เทศบาลตำบล (ทต.),14602.00,7993.00,NaN,1.83,48.00,48000.00,3.29,01-06-22
ทต.บ้านกลาง,14.00432886,100.5423729,ตำบล บ้านกลาง อำเภอเมืองปทุมธานี ปทุมธานี 12000,ภาคกลาง,เทศบาลตำบล (ทต.),12410.00,6362.00,NaN,1.95,30.00,30000.00,2.42,01-06-22
ทต.บ้านยาง,14.56811745,100.8214894,"160 หมู่4, ตำบลบ้านยาง อำเภอเสาไห้ จังหวัดสระบุรี, 18160 18160",ภาคกลาง,เทศบาลตำบล (ทต.),1018.00,415.00,100000.00,2.45,0.12,120.00,0.12,01-06-22
ทต.บ้านสิงห์ ,13.67229022,99.87548533,"222 หมู่4, ตำบลบ้านสิงห์ อำเภอโพธาราม จังหวัดราชบุรี, 70120",ภาคกลาง,เทศบาลตำบล (ทต.),12106.00,4503.00,NaN,2.69,8.00,8000.00,0.66,01-06-22
ทต.ปลายนา,14.66238751,100.2073721,128 หมู่ที่ 4 ตำบล ปลายนา อำเภอศรีประจันต์ สุพรรณบุรี 72140,ภาคกลาง,เทศบาลตำบล (ทต.),8325.00,2870.00,NaN,2.90,5.40,5400.00,0.65,01-06-22
ทต.พนมทวน,14.13154779,99.70289106,ตำบล พนมทวน อำเภอ พนมทวน กาญจนบุรี 71140,ภาคกลาง,เทศบาลตำบล (ทต.),5231.00,2177.00,NaN,2.40,4.00,4000.00,0.76,01-06-22
ทต.มวกเหล็ก,14.65631816,101.1990713,"444 ม .3, ตำบล มวกเหล็ก อำเภอมวกเหล็ก สระบุรี 18180",ภาคกลาง,เทศบาลตำบล (ทต.),6854.00,3762.00,NaN,1.82,7.00,7000.00,1.02,01-06-22
ทต.มหาพราหมณ์,14.3738945,100.4858275,ตำบล สะพานไทย อำเภอ บางบาล จังหวัดพระนครศรีอยุธยา 13250,ภาคกลาง,เทศบาลตำบล (ทต.),8615.00,2720.00,108000.00,3.17,7.00,7000.00,0.81,01-06-22
ทต.ระแหง,14.04404253,100.4300913,หมู่ที่ 4 88 ตำบล ระแหง อำเภอลาดหลุมแก้ว ปทุมธานี 12140,ภาคกลาง,เทศบาลตำบล (ทต.),10374.00,5444.00,8000.00,1.91,30.00,30000.00,2.89,01-06-22
ทต.ลำไทร,13.95914846,100.8576194,ตำบล ลำไทร อำเภอลำลูกกา ปทุมธานี 12150,ภาคกลาง,เทศบาลตำบล (ทต.),2667.00,999.00,NaN,2.67,2.00,2000.00,0.75,01-06-22
ทต.ลำนารายณ์,15.2053488,101.1357086,206 คชเสนีย์ 6 ตำบลชัยนารายณ์ อำเภอชัยบาดาล ลพบุรี 15130,ภาคกลาง,เทศบาลตำบล (ทต.),15831.00,8574.00,NaN,1.85,16.00,16000.00,1.01,01-06-22
ทต.ลำลูกกา,13.92953699,100.7376558,ตำบล บึงคำพร้อย อำเภอลำลูกกา ปทุมธานี 12150,ภาคกลาง,เทศบาลตำบล (ทต.),19133.00,10051.00,180000.00,1.90,40.00,40000.00,2.09,01-06-22
ทต.วังกะ,15.1573116,98.45033574,339 หมู่ที่ 3 ตำบลหนองลู อำเภอสังขละบุรี กาญจนบุรี 71240,ภาคกลาง,เทศบาลตำบล (ทต.),9245.00,2319.00,100000.00,3.99,15.00,15000.00,1.62,01-06-22
ทต.วังขนาย,13.95165296,99.66333424,ตำบล วังขนาย อำเภอท่าม่วง กาญจนบุรี 71110,ภาคกลาง,เทศบาลตำบล (ทต.),9169.00,3848.00,NaN,2.38,7.00,7000.00,0.76,01-06-22
ทต.วังตะเคียน,15.27801232,99.81721078,"อาคารสำนักงานเทศบาลตำบลวังตะเคียน, ตำบลวังตะเคียน อำเภอหนองมะโมง จังหวัดชัยนาท 17000",ภาคกลาง,เทศบาลตำบล (ทต.),6689.00,2466.00,NaN,2.71,NaN,NaN,NaN,01-06-22
ทต.วังม่วง,14.84010911,101.1225468,ตำบล คำพราน อำเภอ วังม่วง สระบุรี 18220,ภาคกลาง,เทศบาลตำบล (ทต.),8336.00,3323.00,NaN,2.51,4.00,4000.00,0.48,01-06-22
ทต.วัดเพลง,13.45213344,99.88516753, ตำบล วัดเพลง อำเภอ วัดเพลง ราชบุรี 70170,ภาคกลาง,เทศบาลตำบล (ทต.),1382.00,560.00,117600.00,2.47,4.00,4000.00,2.89,01-06-22
ทต.วิเศษไชยชาญ,14.58895347,100.3482159,ตำบล ศาลเจ้าโรงทอง อำเภอ วิเศษชัยชาญ อ่างทอง 14110,ภาคกลาง,เทศบาลตำบล (ทต.),6233.00,2959.00,NaN,2.11,3.94,3940.00,0.63,01-06-22
ทต.วิหารแดง,14.34555455,100.9885644,ตำบล หนองสรวง อำเภอวิหารแดง สระบุรี 18150,ภาคกลาง,เทศบาลตำบล (ทต.),4140.00,1903.00,120000.00,2.18,6.00,6000.00,1.45,01-06-22
ทต.ศิลาดาน,15.3501107,100.1024041,ตำบล ศิลาดาน อำเภอมโนรมย์ ชัยนาท 17110,ภาคกลาง,เทศบาลตำบล (ทต.),3424.00,1110.00,100000.00,3.08,4.00,4000.00,1.17,01-06-22
ทต.สรรพยา,15.13251578,100.2512637,345 หมู่ 3 ตำบล สรรพยา อำเภอสรรพยา ชัยนาท 17150,ภาคกลาง,เทศบาลตำบล (ทต.),3110.00,1339.00,NaN,2.32,1.50,1500.00,0.48,01-06-22
ทต.สระกระโจม,14.63930759,99.87761399,หมู่ที่ 4 333 ตำบล สระกระโจม อำเภอ ดอนเจดีย์ สุพรรณบุรี 72250,ภาคกลาง,เทศบาลตำบล (ทต.),2407.00,971.00,NaN,2.48,3.00,3000.00,1.25,01-06-22
ทต.สระยายโสม ,14.28234478,99.89802616,ตำบล สระยายโสม อำเภออู่ทอง สุพรรณบุรี 72220,ภาคกลาง,เทศบาลตำบล (ทต.),2838.00,1047.00,NaN,2.71,2.00,2000.00,0.70,01-06-22
ทต.สามโคก,14.04500884,100.5287356, ตำบล สามโคก อำเภอสามโคก ปทุมธานี 12160,ภาคกลาง,เทศบาลตำบล (ทต.),6915.00,1947.00,108000.00,3.55,12.00,12000.00,1.74,01-06-22
ทต.สามง่ามพัฒนา ,15.03416767,100.0253335,19 หมู่ที่ 1 ตำบล สามง่ามท่าโบสถ์ อำเภอ หันคา ชัยนาท 17160,ภาคกลาง,เทศบาลตำบล (ทต.),3640.00,1197.00,NaN,3.04,1.00,1000.00,0.27,01-06-22
ทต.สำโรงเหนือ,13.64188289,100.6037389,9 หมู่4 ถ. เทพารักษ์ ตำบลเทพารักษ์ อำเภอเมืองสมุทรปราการ สมุทรปราการ 10270,ภาคกลาง,เทศบาลตำบล (ทต.),30601.00,NaN,NaN,NaN,65.00,65000.00,2.12,01-06-22
ทต.หนองแซง,15.09086867,99.98618077,หมู่ 6 111 ตำบล หนองแซง อำเภอ หันคา ชัยนาท 96130,ภาคกลาง,เทศบาลตำบล (ทต.),2846.00,529.00,96000.00,5.38,4.00,4000.00,1.41,01-06-22
ทต.หนองน้อย,15.16349471,100.0061041,"ตำบลหนองน้อย อำเภอวัดสิงห์ จังหวัดชัยนาท, 17120",ภาคกลาง,เทศบาลตำบล (ทต.),3737.00,1329.00,85418.00,2.81,1.22,1220.00,0.33,01-06-22
ทต.หนองบัว,14.61857392,100.7881375,ตำบล หนองบัว อำเภอ บ้านหมอ สระบุรี 18130,ภาคกลาง,เทศบาลตำบล (ทต.),2652.00,1055.00,NaN,2.51,4.00,4000.00,1.51,01-06-22
ทต.หนองหมู,14.30265638,100.9440708,2/1 ตำบล หนองหมู อำเภอวิหารแดง สระบุรี 18150,ภาคกลาง,เทศบาลตำบล (ทต.),1527.00,395.00,300.00,3.87,1.20,1200.00,0.79,01-06-22
ทต.หลักห้า,13.56347154,100.0563244,155 ตำบล โรงเข้ อำเภอบ้านแพ้ว สมุทรสาคร 74120,ภาคกลาง,เทศบาลตำบล (ทต.),41884.00,10326.00,NaN,4.06,20.00,20000.00,0.48,01-06-22
ทต.ห้วยกรด,15.10056106,100.207021,"เลขที่ 291 หมู่ 9, ตำบลห้วยกรด อำเภอสรรคบุรี จังหวัดชัยนาท, 17140",ภาคกลาง,เทศบาลตำบล (ทต.),8759.00,3112.00,30000.00,2.81,3.85,3850.00,0.44,01-06-22
ทต.ห้วยกรดพัฒนา,15.08124277,100.213066,ตำบล ห้วยกรด อำเภอ สรรคบุรี ชัยนาท 17140,ภาคกลาง,เทศบาลตำบล (ทต.),5371.00,1758.00,36000.00,3.06,5.40,5400.00,1.01,01-06-22
ทต.ห้วยคันเเหลน,14.56308175,100.3022497,หมู่ที่ 2 ตำบลห้วยคันเเหลน อำเภอวิเศษชัยชาญ อ่างทอง 14110,ภาคกลาง,เทศบาลตำบล (ทต.),3353.00,1047.00,50000.00,3.20,2.00,2000.00,0.60,01-06-22
ทต.ห้วยงู,15.07478972,100.0435465,163 หมู่ 5 ตำบล ห้วยงู อำเภอ หันคา ชัยนาท 17160,ภาคกลาง,เทศบาลตำบล (ทต.),5659.00,1809.00,96000.00,3.13,3.00,3000.00,0.53,01-06-22
ทต.ห้วยพลู ,13.86768828,100.209401,ตำบล วัดละมุด อำเภอนครชัยศรี นครปฐม 73120,ภาคกลาง,เทศบาลตำบล (ทต.),2193.00,890.00,NaN,2.46,7.00,7000.00,3.19,01-06-22
ทน.ปากเกร็ด,13.9123169,100.4977847,1 หมู่ 5 ถ. แจ้งวัฒนะ ตำบล ปากเกร็ด อำเภอปากเกร็ด นนทบุรี 11120,ภาคกลาง,เทศบาลนคร (ทน.),189888.00,66166.00,NaN,2.87,273.40,273400.00,1.44,01-06-22
ทน.พระนครศรีอยุธยา,14.35917059,100.5761899,27 ถนน นเรศวร ตำบลหอรัตนไชย อำเภอ พระนครศรีอยุธยา จังหวัดพระนครศรีอยุธยา 13000,ภาคกลาง,เทศบาลนคร (ทน.),49071.00,20371.00,NaN,2.41,54.00,54000.00,1.10,01-06-22
ทน.สมุทรปราการ,13.60053037,100.5965085,ถนน สุทธิภิรมย์ ตำบลปากน้ำ อำเภอเมืองสมุทรปราการ สมุทรปราการ 10270,ภาคกลาง,เทศบาลนคร (ทน.),51563.00,17294.00,NaN,2.98,100.00,100000.00,1.94,01-06-22
เขตการปกครองพิเศษ สำนักงานเขตดอนเมือง,13.90994646,100.5946735,999 ถนน เชิดวุฒากาศ แขวง ดอนเมือง เขตดอนเมือง กรุงเทพมหานคร 10210,ภาคกลาง,เขตการปกครองพิเศษ,169259.00,75950.00,NaN,2.23,157.56,157560.00,0.93,01-06-22
เขตการปกครองพิเศษ สำนักงานเขตทวีวัฒนา,13.77307325,100.3531894,1 ซ. อุทยาน 5 แขวง ทวีวัฒนา เขตทวีวัฒนา กรุงเทพมหานคร 10170,ภาคกลาง,เขตการปกครองพิเศษ,78749.00,33370.00,NaN,2.36,110.00,110000.00,1.40,01-06-22
เขตการปกครองพิเศษ สำนักงานเขตบางเขน,13.87342619,100.5961062,14 ถ. พหลโยธิน แขวง อนุสาวรีย์ เขตบางเขน กรุงเทพมหานคร 10220,ภาคกลาง,เขตการปกครองพิเศษ,187220.00,114770.00,NaN,1.63,237.91,237910.00,1.27,01-06-22
เขตการปกครองพิเศษ สำนักงานเขตบางกะปิ,13.76579299,100.6474565,189 ถ. ลาดพร้าว แขวง คลองจั่น เขตบางกะปิ กรุงเทพมหานคร 10240,ภาคกลาง,เขตการปกครองพิเศษ,148949.00,104232.00,NaN,1.43,283.26,283260.00,1.90,01-06-22
เขตการปกครองพิเศษ สำนักงานเขตบางขุนเทียน,13.66080782,100.4354024,164 ถ. พระราม 2 แขวง แสมดำ เขตบางขุนเทียน กรุงเทพมหานคร 10150,ภาคกลาง,เขตการปกครองพิเศษ,182235.00,NaN,NaN,NaN,150.00,150000.00,0.82,01-06-22
เขตการปกครองพิเศษ สำนักงานเขตบางบอน,13.63393132,100.3688601,1 ซอย เอกชัย 135/1 แขวงบางบอนใต้ เขตบางบอน กรุงเทพมหานคร 10150,ภาคกลาง,เขตการปกครองพิเศษ,104881.00,50682.00,NaN,2.07,200.00,200000.00,1.91,01-06-22
เขตการปกครองพิเศษ สำนักงานเขตบางรัก,13.73052497,100.5235903,5 ถนนนเรศ แขวง สี่พระยา เขตบางรัก กรุงเทพมหานคร 10500,ภาคกลาง,เขตการปกครองพิเศษ,NaN,NaN,NaN,NaN,NaN,NaN,NaN,01-06-22
เขตการปกครองพิเศษ สำนักงานเขตราษฎร์บูรณะ ,13.68199633,100.5057704,ถนน ราษฎร์บูรณะ แขวง ราษฎร์บูรณะ เขตราษฎร์บูรณะ กรุงเทพมหานคร 10140,ภาคกลาง,เขตการปกครองพิเศษ,81919.00,37025.00,12000.00,2.21,112.96,112960.00,1.38,01-06-22
เขตการปกครองพิเศษ สำนักงานเขตลาดกระบัง,13.72187851,100.7593414,"1471, 1 ถนน ลาดกระบัง แขวง ลาดกระบัง เขตลาดกระบัง กรุงเทพมหานคร 10520",ภาคกลาง,เขตการปกครองพิเศษ,NaN,NaN,NaN,NaN,NaN,NaN,NaN,01-06-22
เขตการปกครองพิเศษ สำนักงานเขตวังทองหลาง,13.76424642,100.605713,999 ซ. รามคำแหง 39 แขวง พลับพลา เขตวังทองหลาง กรุงเทพมหานคร 10310,ภาคกลาง,เขตการปกครองพิเศษ,107353.00,62996.00,NaN,1.70,110.00,110000.00,1.02,01-06-22
เขตการปกครองพิเศษ สำนักงานเขตสัมพันธวงศ์,13.73120124,100.5139852,แขวงตลาดน้อยเขตสัมพันธวงศ์,ภาคกลาง,เขตการปกครองพิเศษ,27012.00,13227.00,108000.00,2.04,40.74,40740.00,1.51,01-06-22
เขตการปกครองพิเศษ สำนักงานเขตสายไหม,13.89514473,100.6604595,กรุงเทพมหานคร 10100,ภาคกลาง,เขตการปกครองพิเศษ,207022.00,106813.00,10000.00,1.94,205.00,205000.00,0.99,01-06-22
ทต.เกษไชโย,14.71840415,100.4364922,ตำบล ไชโย อำเภอไชโย อ่างทอง 14140,ภาคกลาง,เทศบาลตำบล (ทต.),2782.00,966.00,72000.00,2.88,2.50,2500.00,0.90,01-06-22
อบต.เกาะหลัก,11.80195706,99.75363632,หมู่ 8 ตำบล เกาะหลัก อำเภอเมืองประจวบคีรีขันธ์ ประจวบคีรีขันธ์ 77000,ภาคกลาง,องค์การบริหารส่วนตำบล (อบต.),15473.00,6285.00,NaN,2.46,6.00,6000.00,0.39,01-06-22
อบต.เขาล้าน,11.5221933,99.59758637,ตำบล เขาล้าน อำเภอทับสะแก ประจวบคีรีขันธ์ 77130,ภาคกลาง,องค์การบริหารส่วนตำบล (อบต.),7915.00,2330.00,NaN,3.40,7.17,7170.00,0.91,01-06-22
อบต.เจริญธรรม,14.37827394,101.0006075,ตำบล เจริญธรรม อำเภอวิหารแดง สระบุรี 18150,ภาคกลาง,องค์การบริหารส่วนตำบล (อบต.),6299.00,2279.00,NaN,2.76,15.00,15000.00,2.38,01-06-22
อบต.เมืองขีดขิน,14.61408401,100.7399484,ตำบล บ้านหมอ อำเภอ บ้านหมอ สระบุรี 18130,ภาคกลาง,องค์การบริหารส่วนตำบล (อบต.),4339.00,1744.00,9000.00,2.49,2.00,2000.00,0.46,01-06-22
อบต.เอกราช,14.4890925,100.4288815,ตำบล เอกราช อำเภอ ป่าโมก อ่างทอง 14130,ภาคกลาง,องค์การบริหารส่วนตำบล (อบต.),3106.00,1106.00,11325.00,2.81,2.74,2740.00,0.88,01-06-22
อบต.แควอ้อม,13.43958173,99.9368732,"อาคารองค์การบริหารส่วนตำบลแควอ้อม, ตำบลแควอ้อม อำเภออัมพวา จังหวัดสมุทรสงคราม, 75110",ภาคกลาง,องค์การบริหารส่วนตำบล (อบต.),2214.00,535.00,NaN,4.14,4.00,4000.00,1.81,01-06-22
อบต.แพรกหนามแดง,13.34821367,99.90210154,หมู่ที่ 5 9/9 ตำบล แพรกหนามแดง อำเภออัมพวา สมุทรสงคราม 75110,ภาคกลาง,องค์การบริหารส่วนตำบล (อบต.),3957.00,1275.00,NaN,3.10,0.11,109.00,0.03,01-06-22
อบต.แม่ลา,14.49912652,100.6249592,ตำบล แม่ลา อำเภอนครหลวง จังหวัดพระนครศรีอยุธยา 13260,ภาคกลาง,องค์การบริหารส่วนตำบล (อบต.),3423.00,1221.00,NaN,2.80,NaN,NaN,NaN,01-06-22
อบต.โคกใหณ่,17.57872494,101.4941753,"19 หมู่ 1, ตำบล โคกใหญ่ อำเภอ ท่าลี่ เลย 42140",ภาคกลาง,องค์การบริหารส่วนตำบล (อบต.),2972.00,1004.00,NaN,2.96,2.09,2090.00,0.70,01-06-22
อบต.โคกช้าง,14.12481623,100.4994224,1/3 ถนน โยธาธิการ พระนครศรีอยุธยา 3111 ตำบล ช่างเหล็ก อำเภอบางไทร จังหวัดพระนครศรีอยุธยา 13190,ภาคกลาง,องค์การบริหารส่วนตำบล (อบต.),4593.00,4593.00,100000.00,1.00,5.00,5000.00,1.09,01-06-22
อบต.โคกตูม-โพนทอง,14.4143773,100.8178926,ตำบล โพนทอง อำเภอหนองแค สระบุรี 18250,ภาคกลาง,องค์การบริหารส่วนตำบล (อบต.),3965.00,965.00,NaN,4.11,NaN,NaN,NaN,01-06-22
อบต.โคกสว่าง,14.50252482,100.8886157,9 หมู่ 4 ตำบลโคกสว่าง อำเภอเมืองสระบุรี สระบุรี 18000,ภาคกลาง,องค์การบริหารส่วนตำบล (อบต.),5504.00,2425.00,145000.00,2.27,5.00,5000.00,0.91,01-06-22
อบต.โพกรวม,14.93906302,100.3911779,"หมู่ที่ 7 54 Phok Ruam, Mueang Sing Buri District, Sing Buri 16000",ภาคกลาง,องค์การบริหารส่วนตำบล (อบต.),3662.00,1364.00,30000.00,2.68,5.00,5000.00,1.37,01-06-22
อบต.โพทะเล,16.09081595,100.2803138,ตำบล โพทะเล อำเภอ โพทะเล พิจิตร 66130,ภาคกลาง,องค์การบริหารส่วนตำบล (อบต.),4585.00,1597.00,38000.00,2.87,0.41,412.00,0.09,01-06-22
อบต.โพธิ์ชัย,15.17393465,104.2148431,"หมูj 1, อาคารสำนักงานองค์การบริหารส่วนตำบลโพธิ์ชัย, ตำบลโพธิ์ชัย อำเภออุทุมพรพิสัย จังหวัดศรีสะเกษ, 33120",ภาคกลาง,องค์การบริหารส่วนตำบล (อบต.),2360.00,864.00,NaN,2.73,NaN,NaN,NaN,01-06-22
อบต.โพธิ์ม่วงพันธ์,14.57159543,100.2565881,"หมู่ที่ 3, อาคารองค์การบริหารส่วนตำบลโพธิ์ม่วงพันธ์, ถนนหลวงสาย 3195, ตำบลโพธิ์ม่วงพันธ์ อำเภอสามโก้ จังหวัดอ่างทอง, 14160",ภาคกลาง,องค์การบริหารส่วนตำบล (อบต.),4318.00,1580.00,NaN,2.73,NaN,NaN,NaN,01-06-22
อบต.ไทรน้อย,13.96641654,100.3475895,109/3 ถ. บางกรวย - ไทรน้อย ตำบลไทรน้อย อำเภอไทรน้อย นนทบุรี 11150,ภาคกลาง,องค์การบริหารส่วนตำบล (อบต.),26185.00,15195.00,NaN,1.72,30.00,30000.00,1.15,01-06-22
อบต.ไผ่จำศีล,14.59677633,100.359636,111 หมู่ 5 ตำบล ไผ่จำศิล อำเภอ วิเศษชัยชาญ อ่างทอง 14110,ภาคกลาง,องค์การบริหารส่วนตำบล (อบต.),3599.00,1753.00,10000.00,2.05,1.38,1380.00,0.38,01-06-22
อบต.ไร่ใหม่,12.20964066,99.81890754,ตำบลไร่ใหม่ อำเภอสามร้อยยอด ประจวบคีรีขันธ์ 77180,ภาคกลาง,องค์การบริหารส่วนตำบล (อบต.),2799.00,1026.00,NaN,2.73,NaN,NaN,NaN,01-06-22
อบต.ไร่พัฒนา,15.32301623,100.2398141,ตำบล ไร่พัฒนา อำเภอมโนรมย์ ชัยนาท 60140,ภาคกลาง,องค์การบริหารส่วนตำบล (อบต.),3918.00,1342.00,85000.00,2.92,62.00,62000.00,15.82,01-06-22
อบต.กุดตาเพชร,15.49555757,101.3387935,ตำบล กุดตาเพชร อำเภอ ลำสนธิ ลพบุรี 15190,ภาคกลาง,องค์การบริหารส่วนตำบล (อบต.),2236.00,2236.00,NaN,1.00,NaN,NaN,NaN,01-06-22
อบต.กุยเหนือ,12.11190166,99.89549187,"องค์การบริหารส่วนตำบลกุยเหนือ, ตำบลกุยเหนือ อำเภอกุยบุรี จังหวัดประจวบคีรีขันธ์, 77150",ภาคกลาง,องค์การบริหารส่วนตำบล (อบต.),5153.00,1555.00,NaN,3.31,NaN,NaN,NaN,01-06-22
อบต.ขุนศรี,13.99717539,100.2772711,"ทางหลวงชนบท นนทบุรี 3017, ตำบล ขุนศรี อำเภอไทรน้อย นนทบุรี 11150",ภาคกลาง,องค์การบริหารส่วนตำบล (อบต.),5052.00,1793.00,NaN,2.82,7.00,7000.00,1.39,01-06-22
อบต.คชสิทธิ์ ,14.40014861,100.7840651,"1 หมู่ 11, ตำบลคชสิทธิ์ อำเภอหนองแค จังหวัดสระบุรี, 18140",ภาคกลาง,องค์การบริหารส่วนตำบล (อบต.),NaN,NaN,NaN,NaN,2.00,2000.00,NaN,01-06-22
อบต.คลองพระอุดม,13.9277957,100.4799462,45 หมู่ 3 ตำบล คลองพระอุดม อำเภอปากเกร็ด นนทบุรี 11120,ภาคกลาง,องค์การบริหารส่วนตำบล (อบต.),6350.00,3024.00,NaN,2.10,15.00,15000.00,2.36,01-06-22
อบต.คลองวัว,14.56500476,100.4259204,ตำบล คลองวัว อำเภอเมืองอ่างทอง อ่างทอง 14000,ภาคกลาง,องค์การบริหารส่วนตำบล (อบต.),2227.00,787.00,78276.91,2.83,0.70,700.00,0.31,01-06-22
อบต.คอทราย,14.82562403,100.3340037,ตำบล คอทราย อำเภอ ค่ายบางระจัน สิงห์บุรี 16150,ภาคกลาง,องค์การบริหารส่วนตำบล (อบต.),2534.00,563.00,72000.00,4.50,2.33,2330.00,0.92,01-06-22
อบต.คำหยาด,14.6585248,100.3383837,ตำบล คำหยาด อำเภอ โพธิ์ทอง อ่างทอง 14120,ภาคกลาง,องค์การบริหารส่วนตำบล (อบต.),3211.00,1074.00,NaN,2.99,0.80,800.00,0.25,01-06-22
อบต.จำลอง,14.74826982,100.3666067,ตำบล จำลอง อำเภอ แสวงหา อ่างทอง 14150,ภาคกลาง,องค์การบริหารส่วนตำบล (อบต.),2297.00,702.00,NaN,3.27,NaN,NaN,NaN,01-06-22
อบต.ชอนน้อย,14.81818874,100.9778403,ตำบล ชอนน้อย อำเภอพัฒนานิคม ลพบุรี 15140,ภาคกลาง,องค์การบริหารส่วนตำบล (อบต.),2590.00,1010.00,136838.29,2.56,NaN,NaN,NaN,01-06-22
อบต.ช้างแรก,11.07859931,99.3743376,หมู่ 3 ตำบล ช้างแรก อำเภอบางสะพานน้อย ประจวบคีรีขันธ์ 77170,ภาคกลาง,องค์การบริหารส่วนตำบล (อบต.),10940.00,4903.00,108000.00,2.23,2.00,2000.00,0.18,01-06-22
อบต.ดอนเจดีย์ ,14.61837256,100.0063887,หมู่ 3 66 ตำบลดอนเจดีย์ อำเภอ ดอนเจดีย์ สุพรรณบุรี 72170,ภาคกลาง,องค์การบริหารส่วนตำบล (อบต.),11276.00,4541.00,76080.00,2.48,4.00,4000.00,0.35,01-06-22
อบต.ดอนโพธิ์,14.71495786,100.6133458,ตำบล ดอนโพธิ์ อำเภอเมืองลพบุรี ลพบุรี 15000,ภาคกลาง,องค์การบริหารส่วนตำบล (อบต.),3673.00,1124.00,NaN,3.27,NaN,NaN,NaN,01-06-22
อบต.ดอนมะโนรา,13.49898118,100.0060092,ตำบล ดอนมะโนรา อำเภอ บางคนที สมุทรสงคราม 75120,ภาคกลาง,องค์การบริหารส่วนตำบล (อบต.),4057.00,1156.00,NaN,3.51,3.80,3800.00,0.94,01-06-22
อบต.ดอนยายหนู,12.14082326,99.93494861,ตำบล ดอนยายหนู อำเภอกุยบุรี ประจวบคีรีขันธ์ 77150,ภาคกลาง,องค์การบริหารส่วนตำบล (อบต.),3241.00,963.00,NaN,3.37,0.74,740.00,0.23,01-06-22
อบต.ด่านช้าง,14.75389463,99.56957619,ตำบล ด่านช้าง อำเภอด่านช้าง สุพรรณบุรี 71210,ภาคกลาง,องค์การบริหารส่วนตำบล (อบต.),14019.00,3842.00,NaN,3.65,12.00,12000.00,0.86,01-06-22
อบต.ตลาดใหม่,14.55106443,100.3126496,ตำบล ตลาดใหม่ อำเภอ วิเศษชัยชาญ อ่างทอง 14110,ภาคกลาง,องค์การบริหารส่วนตำบล (อบต.),2153.00,740.00,67644.30,2.91,0.35,350.00,0.16,01-06-22
อบต.ตลาดกรวด,14.61566459,100.4605348,ตำบล ตลาดกรวด อำเภอเมืองอ่างทอง อ่างทอง 14000,ภาคกลาง,องค์การบริหารส่วนตำบล (อบต.),2008.00,661.00,6000.00,3.04,0.70,700.00,0.35,01-06-22
อบต.ทองเอน,15.02383566,100.3614753,ตำบล ทองเอน อำเภออินทร์บุรี สิงห์บุรี 16110,ภาคกลาง,องค์การบริหารส่วนตำบล (อบต.),7658.00,2613.00,NaN,2.93,3.66,3655.00,0.48,01-06-22
อบต.ทับสะแก,11.53346529,99.62396234,"องค์การบริหารส่วนตำบลทับสะแก, ถ.เพชรเกษม, ต.ทับสะแก อ.ทับสะแก จ.ประจวบคีรีขันธ์, 77130 77130",ภาคกลาง,องค์การบริหารส่วนตำบล (อบต.),4332.00,1411.00,113400.00,3.07,3.00,3000.00,0.69,01-06-22
อบต.ท่าคา,13.46741156,99.99036263,หมู่ที่ 2 85 ตำบล ท่าคา อำเภออัมพวา สมุทรสงคราม 75110,ภาคกลาง,องค์การบริหารส่วนตำบล (อบต.),5541.00,1668.00,108000.00,3.32,5.00,5000.00,0.90,01-06-22
อบต.ท่างาม,15.0277332,100.3330033,"หมู่ 3, อาคารองค์การบริหารส่วนตำบลท่างาม, ตำบลท่างาม อำเภออินทร์บุรี จังหวัดสิงห์บุรี, 16110",ภาคกลาง,องค์การบริหารส่วนตำบล (อบต.),5167.00,1460.00,90037.63,3.54,1.70,1700.00,0.33,01-06-22
อบต.ท่าหลวง,16.4313734,100.3651596,8 ซอย ตำบล ท่าหลวง ตำบล ท่าหลวง อำเภอเมืองพิจิตร พิจิตร 66000,ภาคกลาง,องค์การบริหารส่วนตำบล (อบต.),4793.00,1892.00,NaN,2.53,NaN,NaN,NaN,01-06-22
อบต.นรสิงห์,14.51311339,100.4302472,ตำบล นรสิงห์ อำเภอ ป่าโมก อ่างทอง 14130,ภาคกลาง,องค์การบริหารส่วนตำบล (อบต.),2744.00,840.00,66541.00,3.27,1.50,1500.00,0.55,01-06-22
อบต.นางบวช,14.81171865,100.1136777,"ซอย 8, ตำบล นางบวช อำเภอเดิมบางนางบวช สุพรรณบุรี 72120",ภาคกลาง,องค์การบริหารส่วนตำบล (อบต.),3161.00,1074.00,NaN,2.94,2.88,2876.50,0.91,01-06-22
อบต.บัวลอย ,14.41207436,100.8401495,1/2 ตำบล บัวลอย อำเภอหนองแค สระบุรี 18140,ภาคกลาง,องค์การบริหารส่วนตำบล (อบต.),3200.00,952.00,NaN,3.36,1.70,1700.00,0.53,01-06-22
อบต.บางเจ้าฉ่า,14.70335643,100.4141731,ตำบล บางเจ้าฉ่า อำเภอ โพธิ์ทอง อ่างทอง 14120,ภาคกลาง,องค์การบริหารส่วนตำบล (อบต.),3347.00,1172.00,5000.00,2.86,2.86,2860.00,0.85,01-06-22
อบต.บางโฉลง,13.61359787,100.7515451,หมู่ที่ 7 7777/7 ซอยแสนสุข ตำบลบางโฉลง อำเภอบางพลี สมุทรปราการ 10540,ภาคกลาง,องค์การบริหารส่วนตำบล (อบต.),43022.00,3340.00,120000.00,12.88,106.60,106600.00,2.48,01-06-22
อบต.บางใหญ่,13.83237029,100.3421462,57 ตำบล บางใหญ่ อำเภอบางใหญ่ นนทบุรี 11140,ภาคกลาง,องค์การบริหารส่วนตำบล (อบต.),4486.00,1381.00,NaN,3.25,NaN,NaN,NaN,01-06-22
อบต.บางกระบือ,14.90755621,100.3817824,ตำบล บางกระบือ อำเภอเมืองสิงห์บุรี สิงห์บุรี 16000,ภาคกลาง,องค์การบริหารส่วนตำบล (อบต.),6791.00,2512.00,NaN,2.70,3.00,3000.00,0.44,01-06-22
อบต.บางกอบัว,13.69640841,100.5757639,175 ซอยเพชรหึงษ์ 57 ตำบล บางกะเจ้า อำเภอพระประแดง สมุทรปราการ 10130,ภาคกลาง,องค์การบริหารส่วนตำบล (อบต.),7112.00,2649.00,119160.00,2.68,6.60,6600.00,0.93,01-06-22
อบต.บางขาม,14.97292688,100.4695298,"อาคารสำนักงานองค์การบริหารส่วนตำบลบางขาม, ตำบลบางขาม อำเภอบ้านหมี่ จังหวัดลพบุรี, 15110",ภาคกลาง,องค์การบริหารส่วนตำบล (อบต.),2620.00,935.00,10000.00,2.80,0.15,153.00,0.06,01-06-22
อบต.บางช้าง,13.71352857,100.2064315,ซอยหลังวัดบางช้างใต้ หมู่ที่ 1 ตำบล บางช้าง อำเภอสามพราน นครปฐม 73110,ภาคกลาง,องค์การบริหารส่วนตำบล (อบต.),4641.00,1760.00,80000.00,2.64,3.00,3000.00,0.65,01-06-22
อบต.บางนางลี่,13.41525071,99.92542779,ตำบล บางนางลี่ อำเภออัมพวา สมุทรสงคราม 75110,ภาคกลาง,องค์การบริหารส่วนตำบล (อบต.),3628.00,1023.00,NaN,3.55,2.00,2000.00,0.55,01-06-22
อบต.บางบ่อ,13.58478584,100.8419079,ซอย ผู้ใหญ่วีระ ตำบล บางบ่อ อำเภอบางบ่อ สมุทรปราการ 10560,ภาคกลาง,องค์การบริหารส่วนตำบล (อบต.),25121.00,15948.00,NaN,1.58,40.00,40000.00,1.59,01-06-22
อบต.บางปลา,13.5810331,100.7426781,88 ซอย วัดบางปลา ตำบล บางปลา อำเภอบางพลี สมุทรปราการ 10540,ภาคกลาง,องค์การบริหารส่วนตำบล (อบต.),32652.00,16736.00,NaN,1.95,NaN,NaN,NaN,01-06-22
อบต.บางพลับ ,14.65318995,100.4124119,ตำบล บางพลับ อำเภอ โพธิ์ทอง อ่างทอง 14120,ภาคกลาง,องค์การบริหารส่วนตำบล (อบต.),4410.00,1595.00,10800.00,2.76,1.80,1800.00,0.41,01-06-22
อบต.บางพลีใหญ่,13.60955496,100.7026955,"29, 99 หมู่ที่ 7 ถนน สุขาภิบาล 2 ตำบล บางพลีใหญ่ อำเภอบางพลี สมุทรปราการ 10540",ภาคกลาง,องค์การบริหารส่วนตำบล (อบต.),85877.00,51438.00,NaN,1.67,50.00,50000.00,0.58,01-06-22
อบต.บางระกำ,13.76723283,100.1316348,"99/3 ม .1 ต บางระกำ อ นคร ชัย ศี ร จ, ตำบล บางระกำ อำเภอนครชัยศรี นครปฐม 73120",ภาคกลาง,องค์การบริหารส่วนตำบล (อบต.),2306.00,875.00,120000.00,2.64,0.40,400.00,0.17,01-06-22
อบต.บ้านเกาะ,13.58390457,100.223019,ตำบล บ้านเกาะ อำเภอเมืองสมุทรสาคร สมุทรสาคร 74000,ภาคกลาง,องค์การบริหารส่วนตำบล (อบต.),4649.00,2024.00,NaN,2.30,3.44,3440.00,0.74,01-06-22
อบต.บ้านแป้ง,14.80498436,100.4437873,ตำบล บ้านแป้ง อำเภอพรหมบุรี สิงห์บุรี 16120,ภาคกลาง,องค์การบริหารส่วนตำบล (อบต.),2236.00,817.00,61358.00,2.74,1.00,1000.00,0.45,01-06-22
อบต.บ้านโพธิ์,14.34901564,100.4021179,1 หมู่12 ตำบล บ้านโพธิ์ อำเภอเสนา จังหวัดพระนครศรีอยุธยา 13110,ภาคกลาง,องค์การบริหารส่วนตำบล (อบต.),3433.00,1014.00,82961.00,3.39,2.00,2000.00,0.58,01-06-22
อบต.บ้านกลับ,14.72687177,100.6773054,องค์การบริหารส่วน ตำบล บ้านกลับ อำเภอ หนองโดน สระบุรี 18190,ภาคกลาง,องค์การบริหารส่วนตำบล (อบต.),5902.00,1901.00,NaN,3.10,5.00,5000.00,0.85,01-06-22
อบต.บ้านขวาง,14.5794928,100.5040152,ตำบล บ้านขวาง อำเภอมหาราช จังหวัดพระนครศรีอยุธยา 13150,ภาคกลาง,องค์การบริหารส่วนตำบล (อบต.),1997.00,1020.00,NaN,1.96,1.50,1500.00,0.75,01-06-22
อบต.บ้านข่อย ,14.67621085,100.5280405,หมู่ 9 ตำบล บ้านข่อย อำเภอเมืองลพบุรี ลพบุรี 15000,ภาคกลาง,องค์การบริหารส่วนตำบล (อบต.),4089.00,1387.00,108000.00,2.95,0.29,293.00,0.07,01-06-22
อบต.บ้านคลองสวน,13.56988696,100.4526072,ตำบล บ้านคลองสวน อำเภอพระสมุทรเจดีย์ สมุทรปราการ 10290,ภาคกลาง,องค์การบริหารส่วนตำบล (อบต.),25986.00,12318.00,NaN,2.11,40.00,40000.00,1.54,01-06-22
อบต.บ้านจ่า,14.86955042,100.2896169,ตำบล บ้านจ่า อำเภอ บางระจัน สิงห์บุรี 16130,ภาคกลาง,องค์การบริหารส่วนตำบล (อบต.),3182.00,1099.00,8666.00,2.90,2.89,2890.00,0.91,01-06-22
อบต.บ้านทราย,15.05033683,100.5696021,"อบต.บ้านทราย, ตำบลบ้านทราย อำเภอบ้านหมี่ จังหวัดลพบุรี, 15110",ภาคกลาง,องค์การบริหารส่วนตำบล (อบต.),3981.00,884.00,NaN,4.50,3.62,3620.00,0.91,01-06-22
อบต.บ้านอิฐ ,14.58508412,100.4822274,ตำบล บ้านอิฐ อำเภอเมืองอ่างทอง อ่างทอง 14000,ภาคกลาง,องค์การบริหารส่วนตำบล (อบต.),8697.00,3058.00,37000.00,2.84,4.17,4170.00,0.48,01-06-22
อบต.ประศุก,15.04635196,100.3090728,ตำบล ประศุก อำเภออินทร์บุรี สิงห์บุรี 16110,ภาคกลาง,องค์การบริหารส่วนตำบล (อบต.),6054.00,1907.00,60152.07,3.17,1.13,1130.00,0.19,01-06-22
อบต.ปากแพรก,9.117744503,99.69929114,ตำบล ปากแพรก อำเภอ ดอนสัก สุราษฎร์ธานี 84340,ภาคกลาง,องค์การบริหารส่วนตำบล (อบต.),3591.00,1625.00,6000.00,2.21,NaN,NaN,NaN,01-06-22
อบต.ปากช่อง,14.70000579,101.3643644,อำเภอปากช่อง นครราชสีมา 30130,ภาคกลาง,องค์การบริหารส่วนตำบล (อบต.),9922.00,3211.00,NaN,3.09,NaN,NaN,NaN,01-06-22
อบต.ป่าสะแก,14.85641863,99.96580078,ตำบล ป่าสะแก อำเภอเดิมบางนางบวช สุพรรณบุรี 72120,ภาคกลาง,องค์การบริหารส่วนตำบล (อบต.),3178.00,1119.00,NaN,2.84,3.00,3000.00,0.94,01-06-22
อบต.พักทัน,14.92218772,100.2477194,ตำบล พักทัน อำเภอ บางระจัน สิงห์บุรี 16130,ภาคกลาง,องค์การบริหารส่วนตำบล (อบต.),4693.00,1454.00,NaN,3.23,0.38,380.00,0.08,01-06-22
อบต.มหาสวัสดิ์,13.80519446,100.2645863,ตำบล มหาสวัสดิ์ อำเภอพุทธมณฑล นครปฐม 73170,ภาคกลาง,องค์การบริหารส่วนตำบล (อบต.),9970.00,4319.00,20000.00,2.31,NaN,NaN,NaN,01-06-22
อบต.มะนาวหวาน,14.93991459,101.0774347,ตำบล มะนาวหวาน อำเภอพัฒนานิคม ลพบุรี 15140,ภาคกลาง,องค์การบริหารส่วนตำบล (อบต.),4491.00,1806.00,75000.00,2.49,0.07,66.67,0.01,01-06-22
อบต.ย่านซื่อ,14.6217989,100.4528927,ตำบล ย่านซื่อ อำเภอเมืองอ่างทอง อ่างทอง 14000,ภาคกลาง,องค์การบริหารส่วนตำบล (อบต.),2945.00,1148.00,NaN,2.57,1.00,1000.00,0.34,01-06-22
อบต.วังไก่เถื่อน,14.98850668,100.0165099,ตำบล วังไก่เถื่อน อำเภอ หันคา ชัยนาท 17130,ภาคกลาง,องค์การบริหารส่วนตำบล (อบต.),7539.00,2713.00,15000.00,2.78,2.70,2700.00,0.36,01-06-22
อบต.วังน้ำเย็น,14.72953391,100.2374981,ตำบล วังน้ำเย็น อำเภอ แสวงหา อ่างทอง 14150,ภาคกลาง,องค์การบริหารส่วนตำบล (อบต.),4119.00,1272.00,82000.00,3.24,3.75,3750.00,0.91,01-06-22
อบต.วังน้ำเย็น,14.3925892,100.0292465,ตำบล วังน้ำเย็น อำเภอบางปลาม้า สุพรรณบุรี 72150,ภาคกลาง,องค์การบริหารส่วนตำบล (อบต.),6517.00,2038.00,70000.00,3.20,0.35,350.00,0.05,01-06-22
อบต.วัดโคก,15.3263558,100.0995899,"อบต.วัดโคก, ตำบลวัดโคก อำเภอมโนรมย์ จังหวัดชัยนาท, 17110",ภาคกลาง,องค์การบริหารส่วนตำบล (อบต.),3956.00,1267.00,170000.00,3.12,1.49,1486.00,0.38,01-06-22
อบต.ศาลายา ,13.82445924,100.3095096,85 ม.3 ต.ศาลายา พุทธมณฑล นครปฐม 73170,ภาคกลาง,องค์การบริหารส่วนตำบล (อบต.),10927.00,7133.00,NaN,1.53,NaN,NaN,NaN,01-06-22
อบต.ศาลาลัย,12.25356916,99.87090483,499หมู่4 ถนน เพชรเกษม ต.ศาลาลัย อ อำเภอสามร้อยยอด ประจวบคีรีขันธ์ 77180,ภาคกลาง,องค์การบริหารส่วนตำบล (อบต.),5399.00,2005.00,NaN,2.69,NaN,NaN,NaN,01-06-22
อบต.ศิลาทิพย์,15.31137823,101.1247707,ตำบล ศิลาทิพย์ อำเภอชัยบาดาล ลพบุรี 15130,ภาคกลาง,องค์การบริหารส่วนตำบล (อบต.),1288.00,3683.00,85000.00,0.35,1.20,1200.00,0.93,01-06-22
อบต.ศีรษะจรเข้น้อย,13.67774028,100.7943376,"อาคารองค์การบริหารส่วนตำบลศีรษะจรเข้น้อย, ตำบลศีรษะจรเข้น้อย อำเภอบางเสาธง จังหวัดสมุทรปราการ, 10540",ภาคกลาง,องค์การบริหารส่วนตำบล (อบต.),16070.00,9655.00,10000.00,1.66,31.00,31000.00,1.93,01-06-22
อบต.สนามชัย,14.50394661,100.1403025,หมู่ที่ 5 เลขที่ 288 ตำบลสนามชัย อำเภอเมืองสุพรรณบุรี สุพรรณบุรี 72000,ภาคกลาง,องค์การบริหารส่วนตำบล (อบต.),10066.00,5003.00,NaN,2.01,10.00,10000.00,0.99,01-06-22
อบต.สระแจง,14.87196249,100.2417946,ตำบล สระแจง อำเภอ บางระจัน สิงห์บุรี 16130,ภาคกลาง,องค์การบริหารส่วนตำบล (อบต.),4057.00,1336.00,30000.00,3.04,4.00,4000.00,0.99,01-06-22
